fips,county,state,state_code,male,female,median_age,population,female_percentage,lat,long,life_expectancy,mortality_risk,all_poverty,sq_miles,pct_none,pct_hs,pct_bachelors,median_household_income,pct_black,pct_asian,pct_hispanic,pct_non_hispanic_white,pct_not_proficient_in_english,pct_rural,pct_impoverished,pop_density
1001,Autauga County,Alabama,AL,26874,28326,37.8,55200,51.31521739130434,32.534922932928126,-86.6427301373947,75.66802311,58.37361637,7444.0,594.44,11.3,32.6,27.7,59338.0,19.3,1.2,3.0,74.3,1,42.0,0.13485507246376813,92.86050736827939
1003,Baldwin County,Alabama,AL,101188,106919,42.8,208107,51.376935903165204,30.727478766939267,-87.72256353282205,78.07568073,50.48666896,,1589.78,9.7,27.6,31.3,57588.0,8.8,1.2,4.6,83.1,1,42.3,,130.90301802765163
1005,Barbour County,Alabama,AL,13697,12085,39.9,25782,46.87378791404857,31.869581438362317,-85.39320978902569,75.42168312,56.25187920000001,,884.88,27.0,35.7,12.2,34382.0,48.0,0.5,4.3,45.6,2,67.8,,29.13615405478709
1007,Bibb County,Alabama,AL,12152,10375,39.9,22527,46.05584409819328,32.998628228925845,-87.12647507182314,73.96740422,61.11004622,,622.58,16.8,47.3,11.5,46064.0,21.1,0.2,2.6,74.6,0,68.4,,36.18330174435414
1009,Blount County,Alabama,AL,28434,29211,40.8,57645,50.67395264116576,33.98086883066284,-86.56738039931868,76.16445162,57.86410407,,644.78,19.8,34.0,12.6,50412.0,1.5,0.3,9.6,86.9,2,90.0,,89.40258692887497
1011,Bullock County,Alabama,AL,5663,4689,39.6,10352,45.295595054095834,32.10052546439408,-85.71567933028645,73.85905748,56.8315434,2841.0,622.81,24.8,39.7,13.3,29267.0,69.5,0.2,8.0,21.2,0,51.4,0.2744397217928903,16.621441531125065
1013,Butler County,Alabama,AL,9368,10657,40.7,20025,53.218476903870155,31.75242915567195,-86.68027562242744,73.39030249,59.32403224,,776.83,15.4,43.9,16.1,37365.0,44.6,1.3,1.5,51.3,0,71.2,,25.777840711610004
1015,Calhoun County,Alabama,AL,55315,59783,39.7,115098,51.940954664720486,33.771415664670144,-85.82603921906548,74.02281022,62.39700131,,605.87,15.9,32.4,18.0,45400.0,20.9,1.0,3.9,72.0,1,33.7,,189.97144601977323
1017,Chambers County,Alabama,AL,16257,17569,43.0,33826,51.939336604978415,32.914345351107194,-85.39203021569158,74.06034174,60.67284715,,596.53,18.6,38.4,13.2,39917.0,39.6,1.3,2.6,55.2,0,49.1,,56.70460831810639
1019,Cherokee County,Alabama,AL,12820,13033,45.9,25853,50.41194445518895,34.175904653116085,-85.60380095916831,75.0811087,58.91817248,,553.7,19.8,38.3,12.9,42132.0,4.2,0.3,1.6,91.7,0,85.7,,46.69134910601408
1021,Chilton County,Alabama,AL,21672,22258,38.6,43930,50.666970179831544,32.847867307907556,-86.71879022444824,74.52738607,59.62526007,7960.0,692.85,17.8,44.1,14.2,47547.0,10.0,0.5,7.9,80.1,2,86.7,0.18119735943546553,63.40477736883885
1023,Choctaw County,Alabama,AL,6253,6822,46.1,13075,52.175908221797314,32.01977172097565,-88.26317980997915,75.28906806,54.41434469,,913.5,18.6,38.2,13.0,39907.0,41.5,0.2,1.0,56.4,0,100.0,,14.313081554460865
1025,Clarke County,Alabama,AL,11539,12848,42.3,24387,52.68380694632386,31.67667781209924,-87.83080861554336,75.46213234,55.71641454,,1238.47,18.8,43.7,12.6,40741.0,44.3,0.4,1.4,52.5,0,76.0,,19.69123192326015
1027,Clay County,Alabama,AL,6464,6914,43.7,13378,51.68186574973838,33.26902359843214,-85.8605790173855,75.05595391,57.30187988,,603.96,24.5,36.3,10.2,39201.0,13.8,0.2,3.0,80.5,0,100.0,,22.150473541294126
1029,Cleburne County,Alabama,AL,7281,7657,42.5,14938,51.25853527915384,33.67451320426218,-85.51880933254934,74.29716905,60.75765079,,560.1,22.6,39.6,13.7,46495.0,2.9,0.2,2.5,92.8,1,100.0,,26.67023745759686
1031,Coffee County,Alabama,AL,25314,25974,39.3,51288,50.643425362657936,31.402649421681172,-85.98815267828465,76.48068444,55.82468181,,678.97,13.8,27.9,23.4,55122.0,17.2,1.6,7.6,69.9,1,47.2,,75.53794718470624
1033,Colbert County,Alabama,AL,26075,28420,42.7,54495,52.15157353885678,34.700470938378004,-87.80492780624995,75.07178963,58.77488917,8982.0,592.62,15.6,36.0,18.7,49055.0,16.0,0.6,2.7,78.4,0,43.9,0.164822460776218,91.95605953224663
1035,Conecuh County,Alabama,AL,6037,6477,44.8,12514,51.758031005274105,31.429236930250138,-86.99366150725562,74.05050259,56.79679216,3464.0,850.16,19.2,48.8,10.7,32613.0,45.7,0.2,2.2,50.3,0,80.9,0.2768099728304299,14.719582196292464
1037,Coosa County,Alabama,AL,5501,5354,46.9,10855,49.32289267618609,32.93624304249333,-86.24766160001144,75.18827303,56.09960741,1801.0,650.93,20.4,38.6,11.6,42423.0,30.5,0.1,2.5,65.4,0,100.0,0.16591432519576232,16.676140291582815
1039,Covington County,Alabama,AL,18172,19179,43.9,37351,51.34802281063426,31.24849145355295,-86.45126684432356,75.15398585,57.9139779,,1030.46,17.1,35.4,14.9,40203.0,12.4,0.5,1.7,83.2,0,69.7,,36.246918851774936
1041,Crenshaw County,Alabama,AL,6814,7051,41.5,13865,50.85467003245583,31.73151850368641,-86.31354750864884,74.06851014,60.79583438,2822.0,608.84,21.6,38.8,15.6,39057.0,23.2,1.1,2.3,70.9,1,100.0,0.2035340786152182,22.77281387556665
1043,Cullman County,Alabama,AL,40560,41753,40.6,82313,50.72467289492547,34.1319452282297,-86.86757572060472,75.30541456,59.93032541,12133.0,734.84,18.2,35.6,13.7,45796.0,1.2,0.7,4.4,91.9,1,73.2,0.14740077509020447,112.01486037776931
1045,Dale County,Alabama,AL,24234,25021,37.5,49255,50.79890366460258,31.43181019122864,-85.61100443496244,76.25515737,56.11707483,9936.0,561.15,14.2,32.7,17.0,45309.0,20.5,1.4,6.6,68.4,1,50.9,0.201725713125571,87.77510469571416
1047,Dallas County,Alabama,AL,18448,21581,39.5,40029,53.91341277573759,32.32597925878849,-87.10646900303215,72.38922648,63.14436887,,978.7,19.3,35.2,15.1,34035.0,70.1,0.6,1.1,27.2,0,45.6,,40.90017369980586
1049,DeKalb County,Alabama,AL,35304,35896,39.3,71200,50.41573033707866,34.45980033140949,-85.80410976896026,75.25138038,60.10914115,,777.09,25.9,33.3,12.7,39491.0,1.4,0.5,14.8,80.1,4,90.1,,91.62387882999394
1051,Elmore County,Alabama,AL,39450,41762,38.6,81212,51.42343496035068,32.5966474982654,-86.14915715534637,75.93431563,58.29659553,,618.49,13.6,32.8,24.5,60367.0,21.2,0.7,3.0,73.0,1,54.2,,131.3068925932513
1053,Escambia County,Alabama,AL,19067,18261,39.7,37328,48.92038148306901,31.12613474915307,-87.16158196121191,74.15178481,60.33925513,,945.08,18.5,44.5,12.7,38418.0,31.4,0.3,2.5,60.2,0,63.5,,39.497185423456216
1055,Etowah County,Alabama,AL,49651,53288,41.3,102939,51.76658020769582,34.04525667023056,-86.03476332697053,73.85404427,62.71700456,17624.0,534.99,15.5,32.9,17.7,44903.0,15.5,0.8,4.0,77.7,1,37.5,0.1712081912589009,192.4129422979869
1057,Fayette County,Alabama,AL,8170,8415,43.8,16585,50.73861923424781,33.72122226409212,-87.73885770883656,73.98258812,60.98744615,,627.66,17.6,41.5,12.9,39254.0,11.9,0.4,1.8,84.2,0,80.2,,26.42354140776854
1059,Franklin County,Alabama,AL,15602,15940,37.6,31542,50.53579354511445,34.44169229734741,-87.84373462807847,73.30726919,64.07033145,,633.82,23.2,36.8,12.9,39388.0,3.9,0.3,17.8,76.2,5,70.4,,49.7649174844593
1061,Geneva County,Alabama,AL,12971,13520,42.4,26491,51.03620097391567,31.09505484802003,-85.83909144612956,75.54368311,57.94025645,5495.0,574.41,20.9,37.2,11.1,37823.0,9.3,0.3,4.0,83.7,1,89.6,0.2074289381299309,46.11862606848767
1063,Greene County,Alabama,AL,3950,4476,42.5,8426,53.12129124139568,32.85314775662932,-87.95220353329151,74.05096141,55.60545366,,647.11,24.1,36.8,10.1,28524.0,79.6,0.3,1.7,17.5,0,100.0,,13.020970159632828
1065,Hale County,Alabama,AL,7019,7868,39.2,14887,52.85148115805737,32.76266345818609,-87.6291493665177,74.01266996,58.33721712,,643.94,16.4,42.6,14.1,34724.0,57.8,0.3,1.4,39.7,0,89.2,,23.118613535422554
1067,Henry County,Alabama,AL,8232,8892,44.1,17124,51.92711983181499,31.514705303567386,-85.24141340693765,75.96750715,54.6622644,,561.75,19.8,33.5,18.0,46027.0,25.8,0.4,2.7,69.3,0,87.8,,30.483311081441922
1069,Houston County,Alabama,AL,50029,54323,39.8,104352,52.057459368291944,31.153200882578385,-85.30247404303597,76.80812063,54.59054451,,579.82,14.3,31.6,21.0,47993.0,26.9,1.1,3.4,66.3,1,33.8,,179.97309509847884
1071,Jackson County,Alabama,AL,25536,26558,43.3,52094,50.980919107766724,34.779455582420226,-85.99935398499625,74.13013636,63.30507323,,1077.87,17.5,40.8,14.2,41929.0,3.4,0.6,3.0,89.1,0,77.0,,48.330503678551224
1073,Jefferson County,Alabama,AL,312348,347544,37.7,659892,52.66680002182176,33.554334499008306,-86.89640830636715,75.34314624,56.56090944,,1111.28,10.3,26.8,32.4,55013.0,43.1,1.8,4.0,49.7,1,9.8,,593.812540493845
1075,Lamar County,Alabama,AL,6800,7133,44.5,13933,51.19500466518338,33.77913538869189,-88.0969581267702,74.83260966,58.6907017,,604.85,17.6,39.9,12.5,40936.0,10.4,0.1,1.7,86.0,0,100.0,,23.03546333801769
1077,Lauderdale County,Alabama,AL,44315,48270,41.4,92585,52.135875141761616,34.901407326696294,-87.65400964692091,76.49725809999998,55.85441722,,667.7,12.6,36.0,23.9,48707.0,9.9,0.8,2.9,84.6,1,49.3,,138.66257301183165
1079,Lawrence County,Alabama,AL,16003,17168,42.2,33171,51.75605197310904,34.52167795535142,-87.31099055710466,74.33276038,62.40736784,,690.68,21.0,41.5,11.7,43909.0,10.8,0.2,2.2,76.4,0,91.3,,48.02658249840737
1081,Lee County,Alabama,AL,78372,80915,31.4,159287,50.79824467784565,32.6011356475738,-85.35547858790139,76.51751381,57.30305928,,607.54,9.5,24.1,34.1,48937.0,22.8,4.2,3.8,67.5,1,27.4,,262.1835599302104
1083,Limestone County,Alabama,AL,46427,46625,39.5,93052,50.10639212483342,34.81010128499645,-86.98140593250632,77.21481692,55.04060376,,559.94,15.7,30.3,25.5,64863.0,13.5,1.6,6.1,76.1,1,57.6,,166.18209093831481
1085,Lowndes County,Alabama,AL,4830,5406,41.6,10236,52.81359906213363,32.15474570310732,-86.65010823440929,72.57266331,59.81800276,,715.91,22.5,38.6,14.1,33973.0,71.9,0.4,1.7,25.1,0,100.0,,14.29788660585828
1087,Macon County,Alabama,AL,8790,10264,38.0,19054,53.867954235331155,32.385938660091554,-85.6926557982763,72.81199402,57.87952643,,608.89,18.3,30.1,20.7,32495.0,80.0,0.6,1.8,16.1,0,55.5,,31.293008589400387
1089,Madison County,Alabama,AL,174665,182895,38.5,357560,51.1508558004251,34.76309047358268,-86.55022471636639,78.06564997,52.44721887,,801.59,8.9,20.8,41.7,63755.0,24.4,2.7,5.1,64.6,1,16.4,,446.0634488953205
1091,Marengo County,Alabama,AL,9446,10092,42.7,19538,51.65318865799979,32.247665493391004,-87.78953082031431,74.68026646,57.97444536,5003.0,976.88,16.2,39.8,15.4,37733.0,51.1,0.3,2.6,44.9,0,69.3,0.25606510390009213,20.00040946687413
1093,Marion County,Alabama,AL,14898,15067,44.3,29965,50.281995661605215,34.13655552248483,-87.88713524898684,74.53914217,59.40915662,,742.29,20.3,34.8,13.1,37887.0,3.8,0.3,2.6,91.8,1,88.9,,40.3683196594323
1095,Marshall County,Alabama,AL,46977,48168,38.7,95145,50.62588680435125,34.36695249694817,-86.30662784816177,74.53037821,60.63151829,,565.84,19.1,31.1,19.2,46233.0,2.4,0.7,14.3,80.4,4,53.3,,168.14823978509824
1097,Mobile County,Alabama,AL,197928,216731,37.6,414659,52.26728468452391,30.78721220095308,-88.20579885923952,75.12711493,57.60677187,79364.0,1229.44,13.8,33.5,22.9,43598.0,35.7,2.1,3.1,56.7,1,20.0,0.1913958216269272,337.27469416970325
1099,Monroe County,Alabama,AL,10230,11282,42.3,21512,52.445146894756405,31.57087541673853,-87.36543633099075,74.9691854,56.86567779,,1025.68,16.3,46.1,14.1,39556.0,41.0,0.5,1.6,54.0,0,79.0,,20.973403010685594
1101,Montgomery County,Alabama,AL,107354,119587,36.2,226941,52.69519390502378,32.22026379800926,-86.20761816571863,75.83401496,56.30863444,,784.25,14.4,25.5,32.1,49640.0,58.5,3.2,3.5,33.3,1,10.5,,289.3732865795346
1103,Morgan County,Alabama,AL,58660,60462,40.4,119122,50.75636742163496,34.45346831259361,-86.8529248283104,76.21298745,57.23490314,,579.34,16.7,29.6,21.7,52797.0,12.7,0.7,8.5,75.3,2,38.6,,205.61673628611868
1105,Perry County,Alabama,AL,4436,5050,37.7,9486,53.23634830276197,32.63846919400471,-87.29440144079504,72.30522158,62.06029598,,719.66,21.9,39.4,15.7,26814.0,67.5,0.6,1.4,29.6,0,100.0,,13.18122446710947
1107,Pickens County,Alabama,AL,9708,10590,42.4,20298,52.17262784510789,33.28079282373015,-88.08875080659391,74.5516309,59.25085109,,881.41,19.4,36.7,13.5,37586.0,39.8,0.3,4.8,53.9,2,100.0,,23.029010335712098
1109,Pike County,Alabama,AL,16027,17376,30.8,33403,52.01927970541568,31.802723141778173,-85.94091891113248,74.90191111,58.0502417,,672.09,19.0,33.3,23.6,37259.0,37.3,2.1,2.4,55.8,1,51.7,,49.70018896278772
1111,Randolph County,Alabama,AL,10989,11585,42.7,22574,51.32010277310179,33.293784770971065,-85.4591287871211,74.65191482,57.85759651,,580.55,21.2,36.3,14.9,40546.0,19.4,0.4,2.9,75.3,0,81.3,,38.88381707001981
1113,Russell County,Alabama,AL,28124,30089,35.9,58213,51.68776733719272,32.28839324253349,-85.18492486749624,74.42946613,59.86424622,,641.14,16.7,32.3,16.5,39104.0,44.8,0.9,5.6,46.0,1,35.4,,90.79608197897495
1115,St. Clair County,Alabama,AL,43755,43551,40.3,87306,49.883169541612254,33.715718635179876,-86.31461907158442,74.98272864,60.81512682,,631.9,15.2,36.0,16.5,57284.0,9.3,0.9,2.5,85.6,0,72.8,,138.1642664978636
1117,Shelby County,Alabama,AL,102478,108783,38.9,211261,51.49222999039104,33.264277601125,-86.66066541307319,79.53418046,49.5563144,,784.93,7.8,20.3,42.1,75663.0,12.9,2.3,5.8,77.5,2,22.9,,269.14629330003953
1119,Sumter County,Alabama,AL,6014,6971,35.8,12985,53.68502117828263,32.59105735171712,-88.19884604374236,74.82131302,54.50504671,,903.89,15.8,37.8,21.8,27859.0,71.4,2.0,1.2,24.6,0,100.0,,14.365686090121585
1121,Talladega County,Alabama,AL,39156,41409,41.1,80565,51.398249860361204,33.38007938419927,-86.16588537343469,74.28689529,61.02609038,13864.0,736.78,19.0,34.9,14.3,41630.0,32.6,0.7,2.4,62.5,0,55.8,0.17208465214423135,109.34743071201716
1123,Tallapoosa County,Alabama,AL,19517,21119,43.7,40636,51.97115857860025,32.862350624195244,-85.79750899281659,75.01084601,58.58536687,8111.0,716.52,19.5,32.9,18.3,42205.0,26.8,0.6,2.4,68.8,0,74.2,0.19960133871444039,56.713001730586726
1125,Tuscaloosa County,Alabama,AL,99539,106674,32.7,206213,51.730007322525736,33.289569418404746,-87.52510914909693,75.79956916,57.84486677,34384.0,1321.76,11.6,29.9,30.3,52557.0,31.8,1.6,3.9,61.2,1,25.5,0.16674021521436572,156.01395109550901
1127,Walker County,Alabama,AL,31506,32987,42.4,64493,51.14818662490502,33.803311239964835,-87.29732387115185,71.56804807,66.65696168,,791.19,19.1,37.1,11.6,45434.0,6.1,0.6,2.6,88.9,1,74.1,,81.51392206676019
1129,Washington County,Alabama,AL,8420,8223,43.6,16643,49.408159586612996,31.40762894566627,-88.20785731310819,74.81607809,57.96930756,,1080.21,19.6,43.2,11.1,44424.0,23.3,0.9,1.6,65.1,1,100.0,,15.407189342812972
1131,Wilcox County,Alabama,AL,5134,5675,40.8,10809,52.5025441761495,31.9892967512008,-87.3081903348858,72.20820195,59.74409981,,888.5,23.1,40.3,12.5,25385.0,70.7,0.2,1.4,26.6,1,100.0,,12.165447383230163
1133,Winston County,Alabama,AL,11840,12035,44.9,23875,50.40837696335079,34.14919947640053,-87.37366306792177,74.51322907,60.83471654,,612.98,21.9,37.4,13.5,41156.0,0.8,0.4,3.2,93.7,0,84.9,,38.94906848510555
2013,Aleutians East Borough,Alaska,AK,1989,1436,42.7,3425,41.92700729927007,55.366507119927775,-161.98133032549518,83.72974942,34.70014597,487.0,6981.94,13.6,40.2,12.7,70081.0,10.4,43.4,14.7,8.6,13,100.0,0.1421897810218978,0.4905513367344893
2016,Aleutians West Census Area,Alaska,AK,3432,2318,37.6,5750,40.313043478260866,52.797996316266726,-106.60605997099529,83.72974942,34.70014597,438.0,4390.28,11.2,40.5,16.4,82633.0,6.5,41.2,13.8,23.2,8,100.0,0.07617391304347826,1.3097114534836047
2020,Anchorage Municipality,Alaska,AK,151144,144968,33.2,296112,48.957151348138545,61.150825295280754,-149.10911748236055,78.68170594,50.69724281,21108.0,1704.68,6.2,23.8,35.3,82113.0,5.4,10.1,9.3,57.3,2,4.1,0.0712838385475766,173.70532885937536
2050,Bethel Census Area,Alaska,AK,9381,8659,27.1,18040,47.99889135254989,60.91323080377408,-159.8180173514006,74.28750903,56.44922907,4502.0,40570.0,18.6,45.2,12.3,44304.0,0.9,1.0,2.4,9.6,3,73.9,0.24955654101995564,0.4446635444910032
2060,Bristol Bay Borough,Alaska,AK,526,364,41.8,890,40.89887640449438,58.74386360799613,-156.69997745651224,76.69861359999999,53.22591397,100.0,503.84,5.6,34.9,22.3,77257.0,0.8,1.4,7.5,43.4,0,100.0,0.11235955056179775,1.7664337885042871
2068,Denali Borough,Alaska,AK,1117,1115,43.1,2232,49.95519713261647,63.67164250515982,-150.01171591832534,74.49551009999998,52.94173837,121.0,12751.41,1.6,26.1,43.5,75477.0,2.1,5.3,3.2,80.0,0,100.0,0.05421146953405018,0.17503946622373526
2070,Dillingham Census Area,Alaska,AK,2573,2402,30.3,4975,48.28140703517587,59.79906654221384,-158.2350895429839,75.15414797,54.79024118,965.0,18568.78,12.7,39.2,19.3,54524.0,0.7,0.9,3.8,15.2,1,100.0,0.19396984924623115,0.267922825301393
2090,Fairbanks North Star Borough,Alaska,AK,53846,45807,31.1,99653,45.96650376807522,64.80776532872335,-146.56541139175178,79.35482515,49.34262972,8144.0,7338.21,5.5,22.3,32.6,74268.0,4.9,3.5,8.4,69.3,1,30.9,0.08172358082546437,13.580014744740202
2100,Haines Borough,Alaska,AK,1335,1183,44.9,2518,46.98173153296268,59.119879251212865,-135.49995278001106,79.64635815,45.58547916,257.0,2318.6,3.0,30.0,37.4,58943.0,0.6,1.1,3.2,77.4,1,100.0,0.10206513105639396,1.0860001725178987
2105,Hoonah-Angoon Census Area,Alaska,AK,1095,1037,50.2,2132,48.63977485928706,58.28835669160422,-135.64299333971147,79.89874213,44.37816137,397.0,7524.92,8.5,35.6,23.4,51188.0,1.9,1.5,6.4,45.8,0,,0.18621013133208256,0.2833252712321194
2110,Juneau City and Borough,Alaska,AK,16517,15813,38.1,32330,48.91122796164553,58.454630545695714,-134.17394176905708,80.35319968,45.33240004,2334.0,2701.93,3.9,20.4,39.5,79173.0,1.2,7.0,6.8,64.3,1,21.5,0.07219300958861738,11.965520942437443
2122,Kenai Peninsula Borough,Alaska,AK,30314,27906,40.8,58220,47.93198213672279,60.26541331965089,-151.56524389617178,78.60870986,49.33087513,6835.0,16075.33,7.2,32.2,23.3,65439.0,0.7,1.8,4.3,80.1,1,79.3,0.11739951906561319,3.6216985903244288
2130,Ketchikan Gateway Borough,Alaska,AK,7060,6744,39.6,13804,48.855404230657776,55.58516170571989,-130.92880926517572,78.18707009999999,51.93058577,1245.0,4858.41,7.3,29.9,24.5,68309.0,0.9,8.4,5.8,63.2,1,23.2,0.09019124891335845,2.8412587657278823
2150,Kodiak Island Borough,Alaska,AK,7281,6368,33.5,13649,46.65543263242729,57.677042811019994,-153.7805822874154,79.58791343,45.18267505,991.0,6549.58,10.1,31.3,26.0,74109.0,1.0,22.2,8.8,49.1,6,31.3,0.07260605172540113,2.0839504212483853
2164,Lake and Peninsula Borough,Alaska,AK,710,665,33.5,1375,48.36363636363637,58.652919033967095,-156.18684615195298,75.15414797,54.79024118,325.0,23652.01,14.5,41.9,15.8,49403.0,1.0,3.2,3.5,22.3,0,100.0,0.23636363636363636,0.05813459405775662
2170,Matanuska-Susitna Borough,Alaska,AK,53912,49552,35.0,103464,47.8929869326529,62.31621988849926,-149.57141297916505,78.11399368,51.58192602,9641.0,24607.9,7.6,32.2,21.2,74649.0,1.1,1.8,5.1,79.0,1,50.3,0.09318216964354752,4.204503431824739
2180,Nome Census Area,Alaska,AK,5240,4685,28.1,9925,47.20403022670025,64.91109214261573,-164.0272116791401,72.62562232,58.93092071,2337.0,22961.76,15.9,42.9,14.6,55318.0,0.8,1.5,2.5,14.9,1,66.1,0.23546599496221662,0.43224038575440216
2185,North Slope Borough,Alaska,AK,6116,3681,34.8,9797,37.57272634479943,69.31214959526797,-153.48104285015563,77.09129264,51.12066488,1132.0,88695.41,10.2,43.0,16.6,89276.0,1.5,6.1,4.3,31.0,1,59.3,0.1155455751760743,0.11045667413905634
2188,Northwest Arctic Borough,Alaska,AK,4156,3578,27.2,7734,46.263253167830364,67.05300866513784,-159.7210157747925,74.50751669,53.69943422,2114.0,35572.58,18.1,47.3,11.7,59337.0,1.1,0.8,3.8,10.9,1,57.5,0.27333850530126713,0.21741464914830466
2195,Petersburg Borough,Alaska,AK,1649,1606,41.0,3255,49.3394777265745,57.11951010750548,-132.93445731871802,78.18707009999999,51.93058577,265.0,3281.98,10.3,31.9,27.6,66075.0,2.1,3.3,6.0,71.2,1,,0.08141321044546851,0.9917793527078166
2198,Prince of Wales-Hyder Census Area,Alaska,AK,3514,2960,41.0,6474,45.7213469261662,55.799727610620955,-133.01919913685245,78.18707009999999,51.93058577,1109.0,3922.87,9.8,37.3,17.6,49356.0,0.5,1.0,3.7,45.5,0,,0.17130058696323758,1.6503223405312948
2220,Sitka City and Borough,Alaska,AK,4471,4267,38.8,8738,48.832684824902714,57.24007686401532,-135.31525107951913,79.93667747,46.65492982,690.0,2870.34,6.0,28.3,32.6,71825.0,0.9,8.1,7.0,61.1,1,20.9,0.07896543831540398,3.044238661621968
2230,Skagway Municipality,Alaska,AK,555,506,38.5,1061,47.69085768143261,59.562965557566386,-135.33625689690177,79.89874213,44.37816137,48.0,452.33,6.3,23.4,33.7,74635.0,0.7,2.5,5.5,81.4,0,,0.04524033930254477,2.3456326133575045
2240,Southeast Fairbanks Census Area,Alaska,AK,3779,3097,36.3,6876,45.04072134962187,63.876324562772396,-143.21181328851824,77.77042926,50.88162033,804.0,24768.81,9.8,32.6,19.1,63527.0,1.6,2.4,6.4,72.9,3,100.0,0.1169284467713787,0.2776072003459189
2261,Valdez-Cordova Census Area,Alaska,AK,4898,4403,39.0,9301,47.338995806902474,61.56195511559881,-144.46863096113148,78.00466193,50.42054055,852.0,34239.88,4.0,32.7,30.6,68528.0,0.9,4.8,5.3,69.1,0,100.0,0.0916030534351145,0.27164230715761856
2275,Wrangell City and Borough,Alaska,AK,1302,1182,49.5,2484,47.58454106280193,56.331718973625605,-132.02230502679723,78.18707009999999,51.93058577,274.0,2541.48,11.7,37.6,20.7,57832.0,0.5,3.3,3.0,66.9,1,,0.11030595813204509,0.9773832569998584
2282,Yakutat City and Borough,Alaska,AK,369,320,36.4,689,46.444121915820034,59.88889522608021,-140.3576872639421,79.89874213,44.37816137,101.0,7649.46,8.2,38.4,20.0,59523.0,2.0,6.8,4.6,32.6,1,100.0,0.14658925979680695,0.09007171748071105
2290,Yukon-Koyukuk Census Area,Alaska,AK,2910,2505,35.3,5415,46.26038781163435,65.50864462116017,-151.38963204423877,74.49551009999998,52.94173837,1266.0,145504.79,14.3,40.3,13.4,38912.0,0.8,0.4,2.8,21.8,0,100.0,0.2337950138504155,0.037215269682874356
4001,Apache County,Arizona,AZ,35240,36282,34.7,71522,50.728447191074075,35.39552646734953,-109.48882230843971,74.28083521,51.58779328,23966.0,11197.52,20.4,33.1,11.7,33652.0,0.5,0.4,6.4,18.1,6,74.1,0.33508570789407455,6.387307189449092
4003,Cochise County,Arizona,AZ,64135,62144,40.6,126279,49.211666231123154,31.879608041942266,-109.75116766140671,78.82568184,48.28649079,25424.0,6165.69,12.8,23.5,23.0,49164.0,3.9,2.3,35.6,54.9,5,36.3,0.20133197126996571,20.480919410479608
4005,Coconino County,Arizona,AZ,68918,71299,30.6,140217,50.84904112910703,35.838745977913646,-111.77049137835488,79.39500367,45.33079975,23116.0,18618.89,10.4,21.4,35.6,60187.0,1.3,2.1,14.3,54.0,2,31.5,0.1648587546445866,7.5309000697678545
4007,Gila County,Arizona,AZ,26370,27030,49.7,53400,50.617977528089895,33.79975176644272,-110.81171010722186,76.26265371,50.81778202,10678.0,4757.93,14.7,28.6,18.5,43585.0,0.6,0.9,18.7,62.0,2,41.1,0.1999625468164794,11.223368145390957
4009,Graham County,Arizona,AZ,20330,17549,33.3,37879,46.32910055703689,32.93269987499021,-109.8873887474133,77.51518324,51.49845363,,4622.6,14.4,29.9,15.3,50157.0,1.5,0.7,33.1,51.0,2,46.4,,8.194306234586596
4011,Greenlee County,Arizona,AZ,5064,4440,34.2,9504,46.717171717171716,33.21523492222133,-109.24012820437055,78.25067376,50.7095939,1144.0,1843.13,11.0,36.2,11.9,65818.0,1.7,0.9,47.3,45.8,3,46.6,0.12037037037037036,5.156445828563368
4012,La Paz County,Arizona,AZ,10677,10024,56.0,20701,48.422781508139714,33.729243716591746,-113.98132415701498,80.68009173,38.59558108,4976.0,4499.63,22.7,33.0,12.4,37350.0,0.9,1.0,28.1,56.7,4,56.3,0.2403748611178204,4.600600493818381
4013,Maricopa County,Arizona,AZ,2104145,2149768,36.1,4253913,50.53624745028871,33.3488159443998,-112.49129136326741,80.05669046,44.31991323,624923.0,9200.14,12.6,22.6,32.0,65234.0,5.5,4.6,31.3,54.9,5,2.4,0.14690544917115136,462.3748116876483
4015,Mohave County,Arizona,AZ,104047,102017,50.9,206064,49.507434583430395,35.704095159106224,-113.75795269664282,75.70979169,53.39764915,36665.0,13311.08,14.7,34.8,12.9,45129.0,1.1,1.2,16.8,76.9,2,23.0,0.1779301576209333,15.480637183459194
4017,Navajo County,Arizona,AZ,54533,54172,36.4,108705,49.833954279931916,35.39965744024454,-110.32140142426282,75.71379494,50.37809953,30379.0,9950.42,17.2,30.1,15.8,40650.0,0.8,0.7,11.5,41.7,3,54.1,0.27946276620210664,10.924664486524186
4019,Pima County,Arizona,AZ,501879,517843,38.3,1019722,50.782762360721854,32.09742729565182,-111.7899048851512,79.4578924,45.19916103,180513.0,9187.04,11.7,22.5,31.9,53395.0,3.4,3.4,37.6,51.4,4,7.5,0.1770217765234054,110.9957069959421
4021,Pinal County,Arizona,AZ,219048,200673,38.9,419721,47.81104590906818,32.90439176331561,-111.34467078195728,80.17215444,40.10152532,60679.0,5365.61,14.6,29.7,19.0,58848.0,4.5,1.9,30.4,56.6,3,21.9,0.14456984520669683,78.22428391180127
4023,Santa Cruz County,Arizona,AZ,22285,24299,36.6,46584,52.16168641593681,31.52602521307125,-110.84658768144405,81.97463277,39.97802996,,1236.92,24.4,27.2,21.0,40545.0,0.4,0.8,83.4,14.9,13,26.9,,37.66128771464606
4025,Yavapai County,Arizona,AZ,109795,114850,52.9,224645,51.12510850452937,34.59990365784673,-112.55390468776022,79.02284263,45.72801557,29418.0,8123.5,9.7,25.7,25.2,48758.0,0.7,1.2,14.7,80.4,2,33.2,0.1309532818446883,27.653720686896044
4027,Yuma County,Arizona,AZ,106973,100856,34.3,207829,48.52835744770941,32.769376620324266,-113.9055555770482,80.68009173,38.59558108,,5513.99,27.9,25.9,14.8,44116.0,1.9,1.6,64.3,30.4,14,10.4,,37.69121815599956
5001,Arkansas County,Arkansas,AR,8733,9391,41.4,18124,51.815272566762296,34.29080705580511,-91.37490973290753,74.57059047,60.05462174,3237.0,988.77,17.0,38.3,15.5,43887.0,24.5,0.8,3.3,69.5,0,34.7,0.17860295740454646,18.32984414980228
5003,Ashley County,Arkansas,AR,10013,10524,41.7,20537,51.244096021814286,33.191211354727336,-91.7684577361982,74.71536326,59.18675556,3636.0,925.35,17.7,39.9,13.2,41127.0,24.5,0.3,5.5,68.3,1,51.7,0.17704630666601742,22.193764521532394
5005,Baxter County,Arkansas,AR,19992,21227,52.1,41219,51.49809553846527,36.287208404293814,-92.33695011949514,76.94078823,52.67309297,5144.0,554.28,11.8,35.0,18.3,39686.0,0.4,0.5,2.5,94.5,0,65.8,0.12479681700186807,74.3649419066176
5007,Benton County,Arkansas,AR,128399,130581,35.3,258980,50.421268051587,36.338724388474006,-94.25619693381994,79.38662393,47.39651363,,847.36,11.9,29.1,32.4,68978.0,1.8,4.1,16.9,73.0,3,25.2,,305.6316087613293
5009,Boone County,Arkansas,AR,18350,18938,42.4,37288,50.788457412572406,36.308591146778326,-93.09153441501978,77.22027340000002,53.84476412,,590.23,13.0,33.8,16.0,44482.0,0.4,0.7,2.6,93.6,0,62.2,,63.17537231248835
5011,Bradley County,Arkansas,AR,5214,5734,40.2,10948,52.374862988673726,33.466419933345364,-92.16239823980504,74.48573322,60.46246770000001,,649.23,18.0,41.6,15.2,37729.0,27.2,0.5,15.7,55.3,3,49.6,,16.86305315527625
5013,Calhoun County,Arkansas,AR,2607,2595,45.5,5202,49.88465974625144,33.558031272886986,-92.50304686890513,75.70708091,54.18522329,,628.58,17.3,43.6,12.1,44969.0,21.2,0.3,4.1,72.2,0,100.0,,8.275796239142194
5015,Carroll County,Arkansas,AR,13897,13990,44.8,27887,50.16674436117189,36.34101968375258,-93.53823819549706,77.97311975,50.69189115,,630.09,14.2,34.6,20.4,45023.0,0.5,1.5,15.2,79.2,4,72.8,,44.258756685552854
5017,Chicot County,Arkansas,AR,5266,5560,42.7,10826,51.3578422316645,33.267214828807525,-91.29398176784413,73.34736724,60.26711625,3066.0,644.3,19.3,39.2,14.7,31787.0,53.4,0.7,5.8,38.9,1,54.3,0.2832070940328838,16.80273164674841
5019,Clark County,Arkansas,AR,10628,11757,34.1,22385,52.521777976323435,34.050970670851605,-93.17636676689386,75.89627149,57.68472978,,866.07,10.8,30.5,27.6,45408.0,24.1,0.6,4.9,68.4,1,54.4,,25.846640571778263
5021,Clay County,Arkansas,AR,7414,7647,43.0,15061,50.77352101454086,36.36827122549728,-90.41755750692673,74.76613272,59.61978946,,639.47,19.3,41.2,11.6,37687.0,0.7,0.2,2.1,95.2,0,58.9,,23.552316762318796
5023,Cleburne County,Arkansas,AR,12472,12758,49.4,25230,50.566785572730886,35.53810443735143,-92.02672750378927,77.42769049,52.28279699,4047.0,553.69,15.3,40.7,14.9,44902.0,0.4,0.5,2.4,94.7,0,75.5,0.16040428061831152,45.56701403312322
5025,Cleveland County,Arkansas,AR,4138,4088,42.7,8226,49.696085582300036,33.898373124574086,-92.18518895706724,76.09457829,56.67176433,,597.78,11.4,47.2,16.2,47600.0,11.5,0.2,2.4,84.3,0,100.0,,13.760915386931648
5027,Columbia County,Arkansas,AR,11444,12448,36.0,23892,52.10112171438138,33.214298321047565,-93.22731371345827,74.64962803,57.47362275,,766.05,15.0,39.9,20.6,40909.0,35.3,1.1,2.9,59.1,1,57.5,,31.188564715096927
5029,Conway County,Arkansas,AR,10182,10724,41.7,20906,51.29627858031187,35.262246537380165,-92.70129382838728,76.13151688,55.68726957,3903.0,552.25,14.1,43.4,16.0,44565.0,11.3,0.5,4.0,81.3,1,70.5,0.18669281545967664,37.85604345857854
5031,Craighead County,Arkansas,AR,51528,54173,34.1,105701,51.25117075524357,35.830780591727,-90.63283975822227,76.04490344,58.41766649,16548.0,707.21,10.9,34.1,26.3,45615.0,16.0,1.2,5.2,75.6,1,32.2,0.15655481026669568,149.4619702775696
5033,Crawford County,Arkansas,AR,30761,31711,38.7,62472,50.76034063260341,35.58908630761966,-94.24282113342363,75.97051346,58.08510828,,593.09,14.8,37.4,15.3,47363.0,1.4,1.7,8.0,83.8,1,52.0,,105.3330860409044
5035,Crittenden County,Arkansas,AR,23271,25742,35.1,49013,52.52075979842082,35.20794386122905,-90.30883835295964,72.30517454,62.94475621,,609.76,17.6,35.0,18.0,42606.0,53.7,0.7,2.6,41.5,0,20.9,,80.3808055628444
5037,Cross County,Arkansas,AR,8200,8798,41.2,16998,51.75903047417343,35.29571521853951,-90.77121408620285,73.87152431,60.83582655,3252.0,616.38,17.2,41.5,15.4,41214.0,22.7,0.8,2.0,72.7,0,56.8,0.19131662548535122,27.577143969629127
5039,Dallas County,Arkansas,AR,3618,3814,43.7,7432,51.31862217438106,33.96980985111147,-92.65444704569549,74.43590659,58.07744646,,667.39,16.4,43.4,13.7,37259.0,41.2,0.2,3.4,53.1,1,52.6,,11.135917529480514
5041,Desha County,Arkansas,AR,5623,6264,39.1,11887,52.696222764364435,33.833284507105354,-91.25398249476532,73.83194990000001,59.19500937,3125.0,768.15,21.2,44.0,12.4,36132.0,46.9,0.6,6.4,44.5,3,31.4,0.2628922352149407,15.474842153225282
5043,Drew County,Arkansas,AR,9033,9469,37.0,18502,51.17825099989191,33.58945379935467,-91.72001113881393,75.68926943,55.8860101,3387.0,828.36,14.9,35.4,20.6,42494.0,27.8,0.7,3.9,66.1,0,48.6,0.18306129067127877,22.335699454343523
5045,Faulkner County,Arkansas,AR,59911,62505,32.5,122416,51.05950202587897,35.14698116792315,-92.33204545404496,77.23094383,55.55917583,18782.0,647.88,8.7,30.5,30.0,53882.0,12.0,1.3,4.1,80.0,1,38.8,0.15342765651548818,188.9485707229734
5047,Franklin County,Arkansas,AR,8675,9105,41.3,17780,51.20922384701913,35.5123205449671,-93.89063726266792,75.51222371,57.53681824,,608.86,17.4,40.1,11.8,43696.0,0.9,1.0,3.4,91.5,0,82.6,,29.202115428834215
5049,Fulton County,Arkansas,AR,6048,6091,48.1,12139,50.1771150836148,36.381657404512616,-91.81822518817465,76.31101789,54.59339108,,618.19,15.4,37.2,11.8,35630.0,0.6,0.3,1.5,95.0,0,92.9,,19.636357754088547
5051,Garland County,Arkansas,AR,47182,51114,44.9,98296,52.00008138683161,34.57666777754009,-93.15041074296991,75.65631474,54.53551322,17037.0,677.78,11.6,31.5,20.2,43610.0,8.5,0.9,5.9,81.8,1,36.9,0.17332343126882072,145.02640974947624
5053,Grant County,Arkansas,AR,8870,9216,40.4,18086,50.95654097091674,34.2900048788879,-92.42360628570307,75.93258825,58.70432393,,631.81,8.5,44.2,18.3,52050.0,2.7,0.4,2.9,92.3,0,75.0,,28.6256944334531
5055,Greene County,Arkansas,AR,21912,22711,37.9,44623,50.89527821975215,36.1175692120782,-90.55896359781539,75.05616482,59.34581103,,577.7,12.7,44.2,15.9,46512.0,1.8,0.4,2.9,92.6,0,41.5,,77.24251341526744
5057,Hempstead County,Arkansas,AR,10494,11524,39.9,22018,52.338995367426655,33.73532331512718,-93.66847440957208,75.07852467,57.52142097,4483.0,727.52,19.0,36.9,15.1,38682.0,29.6,0.5,13.2,54.3,4,55.8,0.2036061404305568,30.264460083571585
5059,Hot Spring County,Arkansas,AR,17418,16102,41.3,33520,48.036992840095465,34.31762873758588,-92.94594016282792,75.6140479,57.65111301,4541.0,615.2,14.6,39.6,14.7,47205.0,11.1,0.4,3.5,82.5,0,66.0,0.13547136038186158,54.48634590377113
5061,Howard County,Arkansas,AR,6440,6949,38.8,13389,51.900814101127786,34.08890648823255,-93.99357394904557,74.84335901,59.59565267,,588.55,17.1,37.3,14.7,40199.0,20.5,0.6,12.6,63.7,3,67.5,,22.749129215869512
5063,Independence County,Arkansas,AR,18092,19172,39.4,37264,51.449119793902966,35.7415724849761,-91.56970871240068,75.69194784,57.80155747,5727.0,763.95,14.2,35.8,18.9,45596.0,2.2,0.8,6.5,88.3,2,68.6,0.15368720480893086,48.77806139145232
5065,Izard County,Arkansas,AR,7018,6541,48.0,13559,48.2410207242422,36.09487010035818,-91.91340553189517,75.92335293,54.59821836,2492.0,580.58,14.9,37.8,13.8,37828.0,2.1,0.5,2.6,92.7,0,100.0,0.18378936499741869,23.35423197492163
5067,Jackson County,Arkansas,AR,8512,8713,39.9,17225,50.58345428156749,35.59922211078086,-91.21456610285112,73.75773605,61.67174787,,633.94,21.1,41.1,10.2,36573.0,17.5,0.5,2.9,76.6,0,65.1,,27.171341136385145
5069,Jefferson County,Arkansas,AR,34906,35518,38.8,70424,50.43451096217198,34.26878205780137,-91.93151808720087,74.18306713,60.22253375,,870.75,14.0,38.5,17.8,38596.0,56.8,0.9,2.1,38.6,0,30.9,,80.87740453631926
5071,Johnson County,Arkansas,AR,12976,13315,38.0,26291,50.644707314290066,35.570064703742396,-93.45989301357979,76.48272929999997,55.16558756,,659.8,20.6,41.2,15.8,39381.0,1.7,2.5,14.1,78.9,3,71.4,,39.84692331009397
5073,Lafayette County,Arkansas,AR,3381,3534,46.3,6915,51.1062906724512,33.24094545145252,-93.60705581045154,74.13817498,58.46295008,,528.27,18.3,41.3,16.5,35527.0,35.9,0.5,2.8,59.2,0,100.0,,13.089897211653133
5075,Lawrence County,Arkansas,AR,8270,8399,41.1,16669,50.38694582758414,36.04122681848132,-91.10709583181772,74.82653385,59.16743563,,587.61,14.5,40.4,15.0,40308.0,1.2,0.3,1.7,94.8,0,63.6,,28.367454604244312
5077,Lee County,Arkansas,AR,5309,4089,41.8,9398,43.509257288784845,34.78065178564233,-90.78212191166011,73.71096011,57.85239118,,602.62,27.0,40.8,8.9,28080.0,53.9,0.6,2.5,41.2,1,63.5,,15.595234144236832
5079,Lincoln County,Arkansas,AR,8590,5105,38.6,13695,37.276378240233655,33.95744904396039,-91.73332986155596,76.26923828,55.24408759,,561.52,18.7,50.3,8.9,44951.0,30.3,0.3,3.9,64.1,1,100.0,,24.38915799971506
5081,Little River County,Arkansas,AR,6090,6327,42.6,12417,50.95433679632762,33.700511447751154,-94.23434658306978,74.98476429,60.46895846,2148.0,532.25,11.8,42.7,11.4,43559.0,19.6,0.5,3.7,72.6,0,68.5,0.17298864460014496,23.32926256458431
5083,Logan County,Arkansas,AR,10643,11114,41.5,21757,51.0824102587673,35.21527067849378,-93.71634187499376,75.60417143,58.25636974,,708.13,14.9,45.0,12.1,41471.0,1.4,2.4,3.1,90.4,1,71.0,,30.72458446895344
5085,Lonoke County,Arkansas,AR,35667,36539,36.1,72206,50.603827936736565,34.754256224990016,-91.88867330213915,75.86463348,58.82169032,8881.0,770.73,11.3,35.1,20.3,56651.0,6.2,0.9,4.8,85.6,1,44.8,0.12299531894856383,93.685207530523
5087,Madison County,Arkansas,AR,8038,8038,42.6,16076,50.0,36.010952444562285,-93.72455118259842,76.41757722,55.66803253,,834.26,20.3,45.6,12.5,42674.0,0.4,0.8,6.0,89.3,1,100.0,,19.269772013520964
5089,Marion County,Arkansas,AR,7990,8448,51.7,16438,51.39311351745953,36.26838614303282,-92.6842248274692,76.56685817,54.26180398,,597.01,13.1,36.8,17.2,36581.0,0.5,0.7,2.3,93.8,0,100.0,,27.533877154486525
5091,Miller County,Arkansas,AR,21476,22283,38.9,43759,50.92209602596037,33.312090669137284,-93.89155271246109,75.69439445,55.66104426,,625.58,14.0,35.9,16.6,42162.0,24.8,0.5,3.6,68.6,0,40.0,,69.9494868761789
5093,Mississippi County,Arkansas,AR,20876,21955,36.2,42831,51.259601690364455,35.76383359723019,-90.05420095067471,72.65610955,64.19342495,,900.57,19.3,38.6,12.8,36718.0,35.4,0.5,4.2,58.2,1,36.3,,47.55987874346247
5095,Monroe County,Arkansas,AR,3316,3933,47.0,7249,54.25575941509175,34.67784528117564,-91.20390435091556,73.72422602,59.70003051,,607.12,22.9,43.0,10.5,32922.0,39.6,0.7,3.0,54.3,0,69.0,,11.93997891685334
5097,Montgomery County,Arkansas,AR,4440,4553,50.0,8993,50.628266429445134,34.538810773692305,-93.65952878075147,77.10114438,53.55118927,,779.88,21.8,36.5,10.8,38318.0,0.5,1.6,4.6,90.2,1,100.0,,11.531261219674821
5099,Nevada County,Arkansas,AR,4425,4015,44.8,8440,47.57109004739337,33.66396326977911,-93.30719905846298,74.71824086,58.58735775,,617.84,13.2,43.8,15.4,37626.0,30.7,0.5,4.2,62.7,0,69.2,,13.660494626440501
5101,Newton County,Arkansas,AR,3932,3916,49.1,7848,49.8980632008155,35.91997205949455,-93.21786864539571,77.56455112,50.66635397,,820.9,17.4,40.8,16.2,36078.0,0.5,0.4,2.0,93.5,0,100.0,,9.560238762334023
5103,Ouachita County,Arkansas,AR,11327,12779,42.3,24106,53.01169833236538,33.59335286839969,-92.88194022525765,73.37219813,61.54108127,5849.0,732.78,14.4,41.6,16.0,37624.0,39.8,0.5,2.5,54.9,0,56.4,0.24263668796150337,32.896640192144986
5105,Perry County,Arkansas,AR,5184,5138,43.5,10322,49.77717496609184,34.94736989254756,-92.93144274100722,75.51199890000002,58.84981018,,551.4,16.6,40.7,11.9,45342.0,2.0,0.3,3.1,91.8,0,100.0,,18.719622778382302
5107,Phillips County,Arkansas,AR,9006,10028,38.5,19034,52.68466953872018,34.42823805670895,-90.84806629246263,71.27714861,66.7722437,,695.66,21.6,30.1,14.0,29945.0,61.4,0.5,2.1,34.6,0,48.0,,27.361067187994138
5109,Pike County,Arkansas,AR,5346,5462,42.8,10808,50.53663952627683,34.16352177098113,-93.65632702389284,75.72995231,58.24759926,,600.62,15.2,38.9,14.7,41534.0,3.3,0.8,6.4,87.4,2,100.0,,17.99473876993773
5111,Poinsett County,Arkansas,AR,11734,12320,39.7,24054,51.21809262492725,35.574014785872826,-90.66297675416159,72.13829595,65.42163467,5352.0,758.39,19.4,44.3,10.1,37370.0,8.2,0.3,3.2,86.3,0,71.1,0.22249937640309303,31.71719036379699
5113,Polk County,Arkansas,AR,9828,10335,43.7,20163,51.25725338491296,34.48591350460088,-94.22809399775852,75.60356129,57.53823827,,857.68,15.4,37.4,13.3,39048.0,0.5,1.0,6.6,87.6,1,73.4,,23.508767838821008
5115,Pope County,Arkansas,AR,31317,32327,35.0,63644,50.79347621142606,35.44762758047479,-93.03415221892072,76.81381268,55.33442991,,812.55,15.2,35.5,22.0,45788.0,3.2,1.3,9.4,83.6,2,54.5,,78.32625684573257
5117,Prairie County,Arkansas,AR,4120,4124,46.2,8244,50.024260067928196,34.829798539254305,-91.55279742630763,76.10375435,54.76309913,,647.96,17.8,40.0,15.1,43245.0,11.7,0.1,1.8,84.8,0,100.0,,12.723007593061299
5119,Pulaski County,Arkansas,AR,188496,204967,36.9,393463,52.093081179170596,34.769940166624515,-92.31178372189991,76.48142235,54.48875759,,759.76,9.6,26.2,34.1,49957.0,37.2,2.3,6.2,51.9,2,12.3,,517.8780141097188
5121,Randolph County,Arkansas,AR,8784,8819,41.5,17603,50.099414872464926,36.3414590326538,-91.02770853309576,76.05298705,55.20131972,,652.19,17.3,35.6,14.0,37799.0,1.0,0.4,2.1,93.1,1,67.4,,26.99060089851117
5123,St. Francis County,Arkansas,AR,14441,11853,38.9,26294,45.07872518445272,35.022009561830515,-90.7477657706903,73.57011412,61.39732389,6973.0,634.77,19.4,38.8,10.6,33257.0,52.3,0.6,5.4,39.8,0,51.6,0.26519358028447554,41.422877577705314
5125,Saline County,Arkansas,AR,58030,59979,39.2,118009,50.82578447406554,34.6465951571083,-92.6765232282382,77.90655109999999,52.75591041,,723.6,9.6,31.5,26.1,63677.0,7.9,1.3,5.0,83.9,1,36.2,,163.08595909342176
5127,Scott County,Arkansas,AR,5332,5110,41.0,10442,48.936985251867455,34.86077478168221,-94.06323825597694,75.90558551,57.11663906,,892.32,21.1,43.0,9.1,35826.0,0.6,3.3,7.7,84.3,1,70.4,,11.70207997131074
5129,Searcy County,Arkansas,AR,3981,3942,47.6,7923,49.753881105641796,35.910899572577186,-92.69950814142427,76.27590253,54.38729435,1814.0,666.1,15.5,45.1,12.5,31659.0,0.4,0.4,2.7,92.8,0,100.0,0.2289536791619336,11.894610418856027
5131,Sebastian County,Arkansas,AR,62274,65187,37.5,127461,51.142702473697824,35.199660327844946,-94.27417847062952,76.19079573,57.04783739,21232.0,531.91,16.8,32.0,19.7,46843.0,6.6,4.7,14.6,69.0,3,20.8,0.16657644299040492,239.6288845857382
5133,Sevier County,Arkansas,AR,8607,8586,34.9,17193,49.93892863374629,33.9971754119254,-94.24117760339227,75.24752824,58.83568701,,565.13,25.7,36.1,11.5,44100.0,3.7,0.6,34.0,56.6,9,63.6,,30.423088492913134
5135,Sharp County,Arkansas,AR,8335,8708,47.4,17043,51.09429091122455,36.1611416259315,-91.47985751697682,75.39866716,55.97037253,3610.0,604.44,16.4,42.0,11.3,36032.0,0.8,0.6,2.3,93.4,0,80.1,0.21181716833890746,28.19634703196347
5137,Stone County,Arkansas,AR,6209,6237,49.8,12446,50.112485939257596,35.85988028118925,-92.1567032349566,76.64483713,53.85497859,,606.41,20.4,36.3,12.8,34009.0,0.4,0.5,2.0,94.4,0,100.0,,20.524067874870138
5139,Union County,Arkansas,AR,19332,20400,40.1,39732,51.34400483237693,33.171301924171146,-92.59726943648323,73.64434776,60.56936371,,1039.21,15.2,35.2,20.8,45335.0,32.6,0.7,4.1,60.7,1,54.5,,38.23288844410658
5141,Van Buren County,Arkansas,AR,8284,8400,47.9,16684,50.347638456005754,35.58064470282818,-92.51568380211019,77.09956478,51.23099600000001,,708.14,14.2,43.9,14.1,40486.0,0.6,0.4,3.1,93.5,0,100.0,,23.560312932470982
5143,Washington County,Arkansas,AR,114181,114348,31.8,228529,50.036538032372256,35.97906307205256,-94.21557553246849,78.11494349,52.6324426,,941.97,15.0,26.3,32.8,50893.0,3.4,2.7,17.1,70.7,4,25.5,,242.60751403972526
5145,White County,Arkansas,AR,38751,40053,36.6,78804,50.82610019795949,35.25627781090881,-91.74554960434645,75.87338913,58.00898185,,1035.08,14.6,38.4,21.4,44811.0,4.5,0.8,4.4,87.9,1,54.3,,76.13324573945975
5147,Woodruff County,Arkansas,AR,3051,3609,45.6,6660,54.189189189189186,35.186306413089426,-91.24305627869849,73.26080026,61.68043004,1712.0,586.79,20.0,42.5,12.0,34306.0,25.9,0.3,2.1,69.3,0,100.0,0.25705705705705706,11.349886671552005
5149,Yell County,Arkansas,AR,10782,10791,39.3,21573,50.02085940759282,35.00261093322689,-93.41123285260817,75.4764002,58.23897966,3817.0,929.98,19.9,40.9,13.5,41729.0,1.6,1.3,20.5,74.9,5,79.1,0.17693413062624577,23.19727305963569
6001,Alameda County,California,CA,807171,836529,37.4,1643700,50.89304617630954,37.646893227585394,-121.88886747655657,81.45976533,41.10005699,173386.0,739.02,12.0,17.6,46.0,101744.0,10.3,31.8,22.4,31.1,8,0.4,0.10548518586116688,2224.161727693432
6003,Alpine County,California,CA,612,534,44.3,1146,46.596858638743456,38.59719676739881,-119.82066974618066,79.0638122,48.266358,199.0,738.33,11.1,28.7,30.0,55384.0,0.1,2.0,11.4,64.1,1,100.0,0.1736474694589878,1.5521514769818372
6005,Amador County,California,CA,20302,17527,50.5,37829,46.332179016098756,38.44639149036272,-120.65109333340908,79.80151061,46.40284661,3846.0,594.58,9.7,28.7,20.3,58515.0,2.5,1.7,14.4,77.4,1,60.4,0.10166803246186788,63.62306165696794
6007,Butte County,California,CA,112513,114562,37.1,227075,50.45117252009248,39.6669353446951,-121.60068082611363,78.24305179,49.84704295,,1636.46,10.7,22.7,26.5,50945.0,1.5,4.9,16.7,71.6,2,18.9,,138.75988414015617
6009,Calaveras County,California,CA,22434,22801,52.1,45235,50.40565933458605,38.20459548169672,-120.55412801084057,79.84153933,44.85465332,5833.0,1020.01,9.6,27.6,18.7,62984.0,0.8,1.7,12.4,80.7,1,75.4,0.12894882281419254,44.34760443525064
6011,Colusa County,California,CA,11124,10340,35.1,21464,48.1736861721953,39.17748403490378,-122.23695912321348,80.18516192,44.70831411,2375.0,1150.73,30.6,23.7,15.4,57249.0,1.0,1.7,60.3,34.3,16,31.7,0.1106503913529631,18.65250753869283
6013,Contra Costa County,California,CA,553701,579546,39.4,1133247,51.14030745283243,37.91912233692718,-121.92778819106958,81.39449781,42.54708096,97573.0,715.94,10.6,17.6,41.7,101463.0,8.7,18.0,25.8,43.2,6,0.8,0.08610038235265569,1582.8798502667821
6015,Del Norte County,California,CA,14575,12849,38.6,27424,46.85312135355893,41.743134903278985,-123.89724002308719,76.37627978,55.21382898,5842.0,1006.37,19.0,31.5,14.3,48518.0,3.3,3.1,20.0,62.4,2,33.7,0.21302508751458576,27.250414857358624
6017,El Dorado County,California,CA,93040,93621,45.8,186661,50.15562972447378,38.778735497141675,-120.52465737213436,81.06414486,43.24485639,16073.0,1707.88,6.9,21.2,33.7,81869.0,0.9,4.7,12.9,77.6,2,34.7,0.08610797113483802,109.2939784996604
6019,Fresno County,California,CA,487936,490194,32.0,978130,50.11542433009928,36.75819763981456,-119.6493072370918,78.76388306,48.17611532,245131.0,5957.99,24.7,22.9,20.7,52318.0,4.6,11.0,53.5,29.0,12,10.8,0.250611881856195,164.17113825300143
6021,Glenn County,California,CA,14171,13726,36.6,27897,49.2024231996272,39.59820149120442,-122.39199901384107,78.28644217,50.66356994,4632.0,1313.95,24.7,28.2,13.9,47365.0,0.8,3.1,42.3,50.8,10,40.9,0.16603935907086784,21.231401499296016
6023,Humboldt County,California,CA,67666,68102,38.0,135768,50.16056802781215,40.699297540642156,-123.87562886590824,77.20811759,52.98614046,,3567.99,9.7,23.5,29.8,49471.0,1.2,2.9,11.8,74.1,2,29.8,,38.051676153800884
6025,Imperial County,California,CA,92250,87966,32.4,180216,48.81142628845386,33.03951207342643,-115.3653511508614,80.41937447,42.92320576,40601.0,4176.6,31.0,24.5,14.5,46633.0,2.5,2.1,84.6,10.4,21,17.4,0.22529076219647534,43.148972848728626
6027,Inyo County,California,CA,9084,9001,45.7,18085,49.77052806192978,36.511113761044115,-117.41074797719436,78.83049895,48.31354126,2184.0,10180.88,11.2,29.3,26.1,53793.0,1.0,1.6,22.7,61.8,3,46.4,0.12076306331213713,1.7763690368612537
6029,Kern County,California,CA,452646,430407,31.5,883053,48.74078905796143,35.342864363470284,-118.72991638751208,77.25980354,53.94952079,190993.0,8131.92,26.2,27.7,16.1,51586.0,5.2,5.4,54.0,33.5,10,10.2,0.21628713112349995,108.59096006847092
6031,Kings County,California,CA,82674,67401,31.7,150075,44.91154422788605,36.075343710085036,-119.8155506566914,79.21074117,48.6701187,,1389.42,26.3,25.5,13.5,58255.0,6.1,4.5,55.0,31.8,10,10.9,,108.0126959450706
6033,Lake County,California,CA,31879,32269,45.6,64148,50.30398453576105,39.099617207452845,-122.75318988686426,75.80169776,54.83976288,,1256.46,14.8,30.1,15.8,45086.0,1.8,1.4,21.3,69.7,3,33.1,,51.05455008515989
6035,Lassen County,California,CA,20671,10514,36.0,31185,33.71492704826038,40.673589098637045,-120.59431538478664,78.94176874,49.88121708,4085.0,4541.18,17.2,33.2,12.0,57705.0,7.9,1.6,19.2,65.1,2,70.5,0.13099246432579767,6.8671578752658995
6037,Los Angeles County,California,CA,4976788,5121264,36.2,10098052,50.715365696274894,34.3207429592211,-118.22480998416323,81.35807988,40.90116256,1629450.0,4057.88,21.3,20.7,31.8,67986.0,8.0,15.4,48.6,26.1,14,0.6,0.16136280542029294,2488.504342168817
6039,Madera County,California,CA,74683,80330,33.9,155013,51.82146013560153,37.21799210274101,-119.76267044541183,79.34930981,46.34658424,30029.0,2137.07,28.1,25.0,14.5,53632.0,3.3,2.5,58.3,33.7,13,32.9,0.19371923645113637,72.53529364971666
6041,Marin County,California,CA,127113,133182,46.5,260295,51.16579265832997,38.07338555626221,-122.72341555726419,83.80002265,36.15312416,19932.0,520.31,6.8,10.9,58.8,122933.0,2.5,6.5,16.1,71.5,4,6.5,0.0765746556791333,500.2690703618997
6043,Mariposa County,California,CA,8920,8620,51.4,17540,49.1448118586089,37.58150820256936,-119.90542609837362,80.09509905,43.93095163,3077.0,1448.82,9.6,26.5,23.4,51402.0,1.2,1.7,11.6,79.7,1,100.0,0.17542759407069555,12.106403832084041
6045,Mendocino County,California,CA,43439,43983,42.8,87422,50.311134497037365,39.44022410166245,-123.3914726207048,78.54100759,48.16176721,16366.0,3506.34,13.1,25.8,24.7,51386.0,0.8,2.2,25.6,64.7,5,45.2,0.1872068815629933,24.932550750925465
6047,Merced County,California,CA,135816,133259,30.9,269075,49.52485366533495,37.191889864977696,-120.71765231288776,78.92387559999997,49.08945316,53417.0,1934.97,30.6,25.8,14.0,56169.0,3.0,7.9,60.2,27.1,14,14.3,0.19852085849670167,139.05900349876225
6049,Modoc County,California,CA,4613,4325,47.7,8938,48.38890132020586,41.58981656312058,-120.72501563385927,77.50070031,52.15631319,1571.0,3917.77,14.4,32.3,15.9,45227.0,1.0,1.3,14.2,77.7,3,70.0,0.17576639069142985,2.281399877991817
6051,Mono County,California,CA,7341,6833,38.3,14174,48.20798645407083,37.93908943424993,-118.88684313219679,82.96174740000002,36.17765342,1583.0,3048.98,11.3,22.8,30.6,66499.0,0.7,2.2,27.6,65.3,4,45.8,0.1116833639057429,4.648767784636173
6053,Monterey County,California,CA,220967,212245,34.1,433212,48.99333351800042,36.21715890998017,-121.23920059946272,81.84677223,40.50588643,53898.0,3280.6,28.7,20.4,24.5,69665.0,2.6,6.8,59.1,29.6,19,9.8,0.12441483615412316,132.05267329147108
6055,Napa County,California,CA,70082,70448,41.1,140530,50.13022130505942,38.506485447294324,-122.33051811517599,80.49355885,46.66607433,10958.0,748.36,14.9,18.0,34.9,85624.0,2.1,8.8,34.5,52.0,8,13.4,0.07797623283284708,187.78395424661926
6057,Nevada County,California,CA,48889,50203,50.1,99092,50.66302022363056,39.301363059753385,-120.76845107342852,81.29504835,41.35897181,10662.0,957.77,5.8,18.4,36.6,66681.0,0.5,1.4,9.7,84.9,1,42.1,0.1075969805837,103.46116499785961
6059,Orange County,California,CA,1562429,1601753,37.8,3164182,50.621392827593354,33.702972184170065,-117.7610700312427,82.27429948,41.08807708,,790.57,14.9,17.1,39.9,89373.0,1.6,21.4,34.2,40.1,10,0.1,,4002.4058590637133
6061,Placer County,California,CA,185511,194566,41.9,380077,51.19120599246994,39.063459567996674,-120.71755875765687,81.4637242,43.51221716,27340.0,1407.01,5.4,18.2,38.6,89175.0,1.6,8.0,14.3,72.1,2,13.8,0.07193279256571694,270.1309869865886
6063,Plumas County,California,CA,9423,9276,52.2,18699,49.60693085191721,40.004638434438725,-120.83854565296976,78.33346915,50.37979589,2312.0,2553.04,6.1,25.2,23.5,55079.0,1.0,1.2,9.2,83.4,1,74.0,0.12364297556019038,7.324209569767806
6065,Riverside County,California,CA,1186188,1197098,35.3,2383286,50.228885664582435,33.74366319247109,-115.99380653350666,80.21369372,44.13759989,359774.0,7206.48,18.3,26.9,21.8,66793.0,6.2,7.1,49.6,34.7,8,4.6,0.1509571239037195,330.71430157302876
6067,Sacramento County,California,CA,737742,772281,36.0,1510023,51.143658076731285,38.449316848852774,-121.34425336568763,79.11699482,48.09518102,243760.0,964.64,12.6,22.3,30.4,69475.0,9.8,16.9,23.4,44.2,7,2.1,0.16142800473900065,1565.374647536905
6069,San Benito County,California,CA,29626,29790,35.5,59416,50.138009963646155,36.60569063230486,-121.0749692523152,81.76589581,41.42256243,6206.0,1388.71,20.1,24.8,19.7,80063.0,0.9,3.6,60.6,33.5,9,24.0,0.10444997980341995,42.7850307119557
6071,San Bernardino County,California,CA,1062472,1072941,33.1,2135413,50.245128225781144,34.84139921238718,-116.17840998570631,78.65355011,50.3359131,369012.0,20056.94,20.5,26.5,20.3,63310.0,8.1,7.8,54.0,27.9,8,4.7,0.17280591623259764,106.46753692238198
6073,San Diego County,California,CA,1661931,1640902,35.6,3302833,49.681652084740584,33.034136709370166,-116.73529293376949,81.42787948,41.95507335,400028.0,4206.63,12.9,18.4,38.1,78777.0,4.7,12.6,34.0,45.2,7,3.3,0.12111662926947865,785.1493951215106
6075,San Francisco County,California,CA,443970,426074,38.2,870044,48.9715462666256,37.756164368655135,-122.44304167780714,81.96848615,35.40648698,87690.0,46.87,11.5,12.3,57.1,110601.0,5.0,35.9,15.2,40.3,12,0.0,0.10078800612382822,18562.91871132921
6077,San Joaquin County,California,CA,364612,367600,34.1,732212,50.20403926731603,37.93475478900825,-121.27139238365105,78.10445402,50.30125487,105268.0,1391.32,21.1,28.2,18.4,63567.0,7.1,17.0,41.9,31.0,9,8.5,0.1437671057016274,526.2714544461375
6079,San Luis Obispo County,California,CA,142769,138686,39.1,281455,49.274662024124645,35.38708293547382,-120.40451599116749,81.37256158,42.38558439,29345.0,3298.57,9.1,19.8,34.6,70626.0,1.7,4.0,22.8,68.6,3,16.6,0.10426178252296105,85.32636869916357
6081,San Mateo County,California,CA,377851,388084,39.6,765935,50.668007076318496,37.422897430599754,-122.32901654128041,83.11294121,37.64616704,50438.0,448.41,10.8,15.0,49.9,122930.0,2.3,30.1,24.3,38.9,7,1.9,0.06585154092710217,1708.113110769162
6083,Santa Barbara County,California,CA,222208,221530,33.7,443738,49.92360356787113,34.672879885387175,-120.01647340776172,81.65392829,41.55901438,59468.0,2735.09,19.0,17.9,33.8,75646.0,1.8,6.0,45.8,44.1,11,5.0,0.1340160184613443,162.23890255896515
6085,Santa Clara County,California,CA,970469,951731,37.0,1922200,49.51258974092186,37.23178502981293,-121.69512630659516,83.13961024,37.91245612,175627.0,1290.1,11.9,14.5,51.3,125933.0,2.4,38.3,25.3,31.0,9,1.1,0.09136770367287483,1489.9620184481823
6087,Santa Cruz County,California,CA,135727,138038,37.4,273765,50.42207732909613,37.0561884879364,-122.00184962661213,81.36632656,43.00360488,35339.0,445.17,13.6,15.8,40.0,84213.0,1.0,5.2,34.1,56.9,8,12.0,0.12908516428323563,614.9673158568636
6089,Shasta County,California,CA,87859,91226,41.8,179085,50.94005639779993,40.763713268106386,-122.04049900154385,76.68418018,54.95364374,30359.0,3775.4,9.2,24.8,22.2,53908.0,1.1,3.1,10.3,79.6,1,29.3,0.16952285227685177,47.434708905016684
6091,Sierra County,California,CA,1542,1388,55.5,2930,47.37201365187714,39.580326202324656,-120.51599521126568,79.01367593,47.53180445,,953.21,6.7,26.6,18.7,52308.0,0.5,0.7,12.1,82.8,0,99.7,,3.07382423600256
6093,Siskiyou County,California,CA,21706,21834,48.0,43540,50.14699127239321,41.592675402058475,-122.5403512604914,77.65546325,50.92547418,8109.0,6277.89,10.0,25.5,22.5,47560.0,1.3,1.6,12.9,75.7,1,65.8,0.18624253559944878,6.935451242376021
6095,Solano County,California,CA,217931,220599,37.9,438530,50.30419811643445,38.26997290684727,-121.93285185686705,79.65057096,47.44835748,48701.0,821.77,12.0,23.3,26.2,82808.0,13.7,16.2,26.9,37.6,5,3.7,0.11105511595557886,533.6407997371527
6097,Sonoma County,California,CA,245196,256121,41.7,501317,51.08962991480441,38.52828658778606,-122.88740786017405,81.09476535,43.3413019,46604.0,1575.85,12.0,18.8,34.9,81002.0,1.6,4.6,27.2,63.1,6,12.4,0.09296313510214096,318.12482152489133
6099,Stanislaus County,California,CA,266844,272457,34.0,539301,50.52039584573365,37.559134084648015,-120.99768806978115,78.25066562,51.15615729,77913.0,1494.83,21.7,28.6,16.9,59616.0,2.7,6.1,47.0,41.1,10,8.0,0.144470342165136,360.7774797134122
6101,Sutter County,California,CA,47789,48083,35.7,95872,50.153329439252346,39.03457772739615,-121.6948438167805,78.98803939,49.77549317,16390.0,602.41,22.0,23.9,17.7,57879.0,2.2,17.0,31.5,45.3,11,14.8,0.17095710947930573,159.1474245115453
6103,Tehama County,California,CA,31504,31869,40.9,63373,50.28797752986287,40.12562627265812,-122.2340586020686,77.74387965,51.50173462,13060.0,2949.71,15.6,30.7,15.5,47572.0,0.7,1.4,25.7,67.6,4,51.5,0.20608145424707683,21.484484915466265
6105,Trinity County,California,CA,6582,6280,51.8,12862,48.825999067019126,40.6506992937221,-123.11263968581837,77.27537841,52.16247073,,3179.25,9.4,33.4,19.7,40680.0,0.5,1.4,7.5,81.8,1,100.0,,4.045608240937328
6107,Tulare County,California,CA,230255,230222,30.8,460477,49.99641675914324,36.220165516077145,-118.80048756434681,78.29661869,49.61073208,112387.0,4824.22,30.2,26.0,14.3,48763.0,1.2,4.0,65.2,28.1,15,15.5,0.24406647889036803,95.45107810174494
6109,Tuolumne County,California,CA,28102,25830,48.4,53932,47.89364384780836,38.027588914238436,-119.95475499078795,79.2774625,46.77143839,7781.0,2220.88,9.6,28.4,20.0,56500.0,1.9,1.4,12.7,79.8,1,49.0,0.1442742713046058,24.284067576816398
6111,Ventura County,California,CA,419588,428524,37.9,848112,50.52681721282095,34.45650805886403,-119.08363317379286,81.70825701,42.48906464,81792.0,1843.13,15.6,18.9,33.1,84170.0,1.8,7.9,43.0,45.0,10,3.1,0.0964400928179297,460.147683560031
6113,Yolo County,California,CA,104375,110602,31.0,214977,51.448294468710614,38.68661923435762,-121.9015698149292,80.54803351,45.49430714,39303.0,1014.69,13.6,18.5,41.6,67804.0,2.5,15.0,31.9,46.3,6,6.9,0.18282420910143876,211.8647074475948
6115,Yuba County,California,CA,38468,37025,32.5,75493,49.044282251334565,39.26900718329727,-121.3512642631278,76.11979345,56.4979017,12288.0,631.84,18.0,23.1,16.7,47504.0,3.5,7.5,28.7,54.3,6,26.2,0.16277005815108686,119.48119777158774
8001,Adams County,Colorado,CO,250704,246411,33.6,497115,49.568208563410884,39.873630839333046,-104.33776871204664,80.01678824,47.11324256,,1167.65,17.0,28.4,23.6,70199.0,3.2,4.4,40.4,49.6,7,3.6,,425.7397336530638
8003,Alamosa County,Colorado,CO,8242,8202,30.4,16444,49.87837509121868,37.5729353487017,-105.78836680671556,77.42863223,52.58935151,3816.0,722.64,13.5,27.3,26.1,42897.0,1.3,1.6,45.8,48.3,4,36.9,0.23206032595475554,22.755452230709622
8005,Arapahoe County,Colorado,CO,314672,321999,36.5,636671,50.575414931730826,39.649756848133705,-104.3392298417685,80.01678824,47.11324256,56898.0,798.1,7.6,20.7,42.2,76665.0,10.5,6.5,19.5,59.9,4,1.6,0.0893679781237091,797.7333667460218
8007,Archuleta County,Colorado,CO,6546,6362,50.6,12908,49.287263712426395,37.19353673333712,-107.04828747952928,82.08486667,37.13580731,1523.0,1350.18,8.0,21.5,38.9,53337.0,0.6,1.2,18.2,76.8,1,59.4,0.11798884412767276,9.560206787243182
8009,Baca County,Colorado,CO,1755,1808,47.7,3563,50.74375526241931,37.31919022603764,-102.56037464026166,77.9534843,49.05065637,702.0,2554.97,15.2,27.3,22.1,38294.0,0.8,0.4,11.0,84.5,3,100.0,0.19702497895032275,1.3945369221556418
8011,Bent County,Colorado,CO,3790,2019,41.0,5809,34.756412463418826,37.955075948238985,-103.07170965074052,76.78118238,52.73624907,1358.0,1512.86,14.2,48.6,12.4,37659.0,7.6,1.4,32.0,56.6,2,38.0,0.2337751764503357,3.8397472337162726
8013,Boulder County,Colorado,CO,161355,159675,36.2,321030,49.73834221100832,40.092488552325314,-105.35772961262155,80.01678824,47.11324256,33749.0,726.29,4.9,12.3,60.8,83591.0,1.0,5.0,13.9,77.6,2,8.9,0.1051272466747656,442.0135207699404
8014,Broomfield County,Colorado,CO,32789,33331,37.7,66120,50.40986085904417,39.954105918210956,-105.05271057431746,80.01678824,47.11324256,3518.0,33.03,3.2,14.7,55.5,96924.0,1.3,6.7,12.6,76.6,2,0.6,0.05320629159104658,2001.8165304268846
8015,Chaffee County,Colorado,CO,10268,8896,49.1,19164,46.42037152995199,38.74701250608263,-106.19412663972601,81.21888578,41.78434635,2009.0,1013.4,7.1,26.7,33.5,56168.0,1.6,0.9,10.1,85.2,1,37.4,0.10483197662283449,18.91059798697454
8017,Cheyenne County,Colorado,CO,964,1075,35.9,2039,52.72192251103482,38.827951871795065,-102.60350795085606,79.56339481,46.40097624,,1778.28,9.9,36.4,20.0,54504.0,0.9,0.9,11.7,84.4,2,100.0,,1.1466135816631802
8019,Clear Creek County,Colorado,CO,4816,4563,47.8,9379,48.651242136688346,39.6891797331411,-105.64440226875996,81.62735139,40.21565292,753.0,395.23,1.7,20.9,46.5,74019.0,1.0,1.0,7.4,88.2,1,100.0,0.08028574474890714,23.730486046099738
8021,Conejos County,Colorado,CO,4082,4060,39.4,8142,49.864898059444855,37.200712643418115,-106.1916103166688,78.10789475,49.52044520000001,1836.0,1287.39,13.4,32.4,20.2,38777.0,0.4,1.0,51.7,45.3,3,100.0,0.22549742078113486,6.324423834269335
8023,Costilla County,Colorado,CO,1941,1746,51.3,3687,47.35557363710335,37.27812432039779,-105.42823538375185,77.71591643,48.31251319,1128.0,1226.95,21.5,23.8,19.1,31557.0,0.8,1.5,60.3,34.9,9,100.0,0.305939788445891,3.0050124291943434
8025,Crowley County,Colorado,CO,3526,2104,35.6,5630,37.371225577264646,38.32658632505793,-103.7844708388175,77.93659391,52.68396296,1471.0,787.42,15.2,41.7,9.6,35880.0,10.5,1.2,31.2,54.0,3,100.0,0.26127886323268207,7.149932691575017
8027,Custer County,Colorado,CO,2265,2375,58.4,4640,51.18534482758621,38.10869122641281,-105.36752805339287,81.46233707,39.24331118,,738.63,7.0,21.0,36.9,55242.0,1.3,0.5,5.5,89.9,1,100.0,,6.281900274833137
8029,Delta County,Colorado,CO,15235,15111,47.6,30346,49.7956897119884,38.861359153761576,-107.8628891582186,78.85115136,47.64748087,,1142.05,9.6,38.2,21.2,46786.0,0.6,0.8,15.4,81.1,2,63.2,,26.57151613326912
8031,Denver County,Colorado,CO,347188,346229,34.4,693417,49.93084969073443,39.762132121547154,-104.87586982840837,80.01678824,47.11324256,95232.0,153.0,12.9,17.0,47.9,68069.0,8.9,4.1,29.7,54.5,6,0.0,0.13733727324250775,4532.137254901961
8033,Dolores County,Colorado,CO,989,852,51.8,1841,46.27919608908202,37.75171175752354,-108.51740031607224,79.50202945,45.02473075,271.0,1067.05,8.2,38.3,21.3,47482.0,0.3,0.2,6.2,87.9,0,100.0,0.14720260727865292,1.725317464036362
8035,Douglas County,Colorado,CO,163766,164848,38.4,328614,50.16463084348203,39.329708202699145,-104.92955933206845,83.71955332,38.78892507,,840.25,2.0,12.2,57.9,120670.0,1.4,5.2,9.0,81.9,1,10.3,,391.09074680154714
8037,Eagle County,Colorado,CO,28804,25553,36.5,54357,47.00958478208879,39.627845562932045,-106.69536644502287,85.94067055,26.86494792,4239.0,1684.53,10.7,15.7,48.1,86896.0,1.0,1.3,29.8,66.8,7,20.0,0.07798443622716486,32.26834784776763
8039,Elbert County,Colorado,CO,12721,12441,46.1,25162,49.44360543676972,39.28658339787681,-104.13594296760508,81.68054244,42.31600995,,1850.85,3.3,24.6,35.9,98247.0,1.3,1.1,7.2,88.2,0,100.0,,13.594834805629846
8041,El Paso County,Colorado,CO,347478,340675,34.1,688153,49.505705853204155,38.832103441396725,-104.52546027890772,79.83163034,47.76849621,,2126.8,6.3,20.2,37.9,67923.0,6.1,3.1,17.5,68.9,2,8.9,,323.56262930223807
8043,Fremont County,Colorado,CO,27324,19678,44.9,47002,41.866303561550566,38.47295814713031,-105.43965821655789,77.85615608,52.49890113,,1533.07,9.7,39.8,18.2,47885.0,3.8,1.0,13.5,78.8,2,26.4,,30.65874356682996
8045,Garfield County,Colorado,CO,29779,28759,36.3,58538,49.128771054699506,39.599315365500594,-107.9040311803862,80.61321341,45.03976455,,2947.56,12.2,28.5,30.0,74421.0,0.6,0.9,28.8,67.9,5,24.1,,19.85981625480058
8047,Gilpin County,Colorado,CO,3169,2755,45.7,5924,46.50573936529372,39.857562102552684,-105.5225160966723,80.78618227,43.31224008,440.0,149.9,2.4,22.0,38.7,72949.0,1.0,1.6,7.3,87.3,0,100.0,0.07427413909520594,39.51967978652435
8049,Grand County,Colorado,CO,8129,6937,43.5,15066,46.044072746581705,40.10263076536024,-106.11833045965344,82.7261196,37.49913297,,1846.33,4.5,26.5,37.8,69214.0,0.9,0.9,9.0,87.1,1,82.6,,8.159971402728656
8051,Gunnison County,Colorado,CO,8983,7554,34.5,16537,45.67938562012457,38.666765447186044,-107.03162238964329,81.94293325,40.71643559,2128.0,3239.1,2.8,16.0,55.3,61268.0,0.6,0.8,9.4,87.1,0,58.6,0.1286811392634698,5.105430520823686
8053,Hinsdale County,Colorado,CO,406,472,57.5,878,53.758542141230066,37.821284803314846,-107.3003019088267,83.66023442,32.15317942,77.0,1117.25,6.2,25.7,43.9,62149.0,0.6,0.7,6.0,89.0,0,100.0,0.08769931662870159,0.7858581338106959
8055,Huerfano County,Colorado,CO,3305,3278,55.1,6583,49.79492632538357,37.68467850964496,-104.96061132482522,77.40792926,51.65836503,1425.0,1591.0,8.5,28.7,21.4,38242.0,0.8,1.0,34.0,61.6,1,56.1,0.21646665653957162,4.137649277184161
8057,Jackson County,Colorado,CO,631,665,50.9,1296,51.31172839506172,40.666445675963594,-106.34279004828069,80.54271841,41.95875277,,1613.72,12.4,29.6,16.8,51457.0,0.1,0.7,12.6,84.7,2,100.0,,0.8031133034231465
8059,Jefferson County,Colorado,CO,283919,286508,40.4,570427,50.22693526077833,39.586435294113386,-105.25046903583151,80.01678824,47.11324256,,764.21,5.6,20.6,44.1,85550.0,1.1,3.1,15.5,78.0,1,6.9,,746.427029219717
8061,Kiowa County,Colorado,CO,750,699,40.4,1449,48.24016563146998,38.4326686727227,-102.74029027920281,78.65043967,50.07255554,,1767.77,4.1,38.0,21.5,44704.0,0.4,0.2,8.9,88.9,0,100.0,,0.8196767679053271
8063,Kit Carson County,Colorado,CO,4158,3477,38.5,7635,45.540275049115905,39.3054943524409,-102.60294572338049,79.5153185,47.07866514,1023.0,2160.82,11.5,37.7,18.9,48342.0,0.6,0.7,19.0,77.9,4,48.7,0.13398821218074655,3.5333808461602536
8065,Lake County,Colorado,CO,4176,3409,37.8,7585,44.9439683586025,39.20248013233749,-106.34478011552612,80.10734396,45.65320218,,376.91,14.5,27.1,34.0,51802.0,0.7,0.7,35.9,60.4,4,31.1,,20.1241675731607
8067,La Plata County,Colorado,CO,27790,27311,39.9,55101,49.565343641676186,37.28655413856314,-107.84332957991036,81.57236337,41.41496219,5861.0,1692.08,5.0,20.3,43.9,66219.0,0.5,0.8,13.0,78.4,1,59.9,0.10636830547539972,32.56406316486218
8069,Larimer County,Colorado,CO,168615,169546,35.9,338161,50.13765632346722,40.666386174603154,-105.46114554482624,81.71930089,42.92376909,37023.0,2596.0,4.2,19.2,46.3,71306.0,1.0,2.4,11.7,82.5,1,11.7,0.10948335260423289,130.26232665639446
8071,Las Animas County,Colorado,CO,7452,6727,46.1,14179,47.44340221454264,37.315788556131565,-104.03864231253098,77.64617959,49.68136209,2869.0,4772.67,12.2,28.8,19.7,41485.0,1.7,1.2,41.2,53.5,2,40.8,0.20234149093730164,2.970873745723044
8073,Lincoln County,Colorado,CO,3471,2077,37.9,5548,37.436914203316505,38.988087849909355,-103.5139430533545,79.68819814,46.78090469,,2577.63,9.7,53.1,12.8,46690.0,5.3,1.0,14.1,77.2,3,100.0,,2.152364769187199
8075,Logan County,Colorado,CO,11708,9981,38.4,21689,46.018719166397716,40.724672780416576,-103.11012442888727,79.50473848,48.17377308,,1838.55,10.5,32.7,20.5,53168.0,3.5,1.0,16.3,77.1,3,29.2,,11.796796388458295
8077,Mesa County,Colorado,CO,74027,75971,39.1,149998,50.648008640115215,39.01830152379928,-108.46644236398792,78.7734301,49.09739714,21922.0,3328.97,9.9,27.3,27.4,51132.0,0.7,1.0,14.8,81.1,1,12.7,0.14614861531487086,45.05838142128046
8079,Mineral County,Colorado,CO,402,421,58.6,823,51.154313487241794,37.668942286493476,-106.92412193366985,81.24519413,40.52241872,,875.67,3.2,19.3,39.9,60210.0,0.3,0.5,6.4,90.2,0,100.0,,0.9398517706441925
8081,Moffat County,Colorado,CO,6698,6362,37.8,13060,48.71362940275651,40.618394730561846,-108.20744337634011,78.45847908,51.11772187,1676.0,4743.29,9.1,40.4,17.1,59500.0,0.7,0.7,15.7,80.4,2,27.4,0.12833078101071976,2.7533631719755696
8083,Montezuma County,Colorado,CO,12760,13149,44.4,25909,50.75070438843645,37.338562490662135,-108.59657713130177,77.64445018,50.77215419,4031.0,2029.53,10.5,29.4,28.6,50180.0,0.4,0.7,12.7,72.0,1,67.2,0.1555830020456212,12.766009864352831
8085,Montrose County,Colorado,CO,20374,20894,45.1,41268,50.6300281089464,38.40218300038856,-108.26933795513878,79.59093872,47.39416709,6716.0,2240.7,11.2,31.8,23.9,52576.0,0.5,0.9,20.7,75.9,4,45.0,0.16274110691092372,18.417458829829965
8087,Morgan County,Colorado,CO,14112,14145,36.3,28257,50.05839261068054,40.26264077234999,-103.8097164777117,79.14185803,48.43067481,,1280.43,19.9,31.1,17.6,55387.0,3.3,0.8,36.3,58.1,8,32.5,,22.068367657739977
8089,Otero County,Colorado,CO,8872,9453,40.2,18325,51.585266030013635,37.90256806350273,-103.71651192152441,76.43507905,55.38453972,,1261.96,14.6,29.2,17.7,40064.0,1.1,1.0,42.1,53.7,2,34.4,,14.52106247424641
8091,Ouray County,Colorado,CO,2312,2410,53.0,4722,51.03769589157137,38.155465143267094,-107.76927130278031,83.00487766,35.61916604,426.0,541.59,1.6,18.2,48.6,68900.0,0.1,0.8,6.5,90.4,1,100.0,0.09021601016518424,8.718772503185066
8093,Park County,Colorado,CO,9172,8220,50.6,17392,47.263109475620965,39.11931309312425,-105.7171098074064,82.37222214,37.22390515,,2193.85,3.0,29.9,30.2,72121.0,0.8,1.1,6.2,88.9,0,100.0,,7.9276158351756045
8095,Phillips County,Colorado,CO,2295,2023,39.0,4318,46.8503937007874,40.59397331723272,-102.35760124500776,80.4198007,44.03096339,,687.93,11.8,27.6,25.5,52367.0,0.7,0.5,20.6,77.0,6,100.0,,6.276801418749001
8097,Pitkin County,Colorado,CO,9408,8501,42.0,17909,47.467753643419506,39.21708541554017,-106.91659862846625,86.51935805,24.32773397,1227.0,970.7,3.7,14.8,63.1,89034.0,0.9,1.9,10.1,85.7,1,44.2,0.06851303813724943,18.449572473472752
8099,Prowers County,Colorado,CO,6035,6017,38.0,12052,49.92532359774312,37.95519536784376,-102.39335974662973,77.68598893,52.98456061,2421.0,1638.4,17.9,25.9,17.4,42455.0,0.7,0.5,38.6,58.2,4,37.9,0.20087952207102555,7.35595703125
8101,Pueblo County,Colorado,CO,80962,83723,38.9,164685,50.838266994565394,38.17352288761175,-104.51273216338602,77.49822546,52.01296131,32053.0,2386.1,10.6,28.7,22.0,48308.0,1.8,1.1,43.1,52.0,1,14.2,0.1946321765795306,69.01848204182558
8103,Rio Blanco County,Colorado,CO,3291,3174,35.9,6465,49.09512761020881,39.97985127800352,-108.21705233028338,79.25476249,48.56792771,591.0,3220.93,7.2,33.7,20.2,63411.0,1.2,0.7,10.3,84.6,1,100.0,0.091415313225058,2.0071842604465173
8105,Rio Grande County,Colorado,CO,5696,5655,41.5,11351,49.81939917187914,37.58251942983932,-106.38322986022476,77.70912428,52.05302669,1972.0,911.96,15.7,30.2,23.7,44171.0,0.6,0.6,44.0,52.5,4,62.5,0.17372918685578362,12.446817842887846
8107,Routt County,Colorado,CO,12915,11959,39.8,24874,48.07831470611884,40.48514360967252,-106.99125344979768,82.73038727,38.64104527,1766.0,2362.03,3.2,19.7,50.4,81033.0,0.9,0.9,7.0,89.6,2,45.2,0.07099782905845461,10.53077225945479
8109,Saguache County,Colorado,CO,3182,3286,49.1,6468,50.80395794681509,38.080526607508375,-106.28150636095563,79.75099557,45.94102338,1757.0,3168.53,19.6,29.8,22.9,36869.0,0.8,0.9,35.9,58.8,5,100.0,0.27164502164502163,2.0413251570917743
8111,San Juan County,Colorado,CO,283,261,52.1,544,47.977941176470594,37.764028496805494,-107.67615655284591,79.89471212,43.8353207,,387.49,7.1,26.7,34.5,46878.0,0.1,0.8,12.3,83.9,1,100.0,,1.4039071976050994
8113,San Miguel County,Colorado,CO,4215,3753,41.5,7968,47.10090361445783,38.003765232828215,-108.40572790845549,83.72558928,32.61823169,,1286.61,5.0,15.2,56.7,69458.0,0.6,0.9,10.7,85.9,1,100.0,,6.193018863525078
8115,Sedgwick County,Colorado,CO,1162,1188,49.1,2350,50.55319148936171,40.875916720400575,-102.35182482987541,78.22349837,51.65542256,,548.04,9.9,30.0,20.8,40009.0,0.7,1.4,16.7,79.7,1,100.0,,4.288008174585797
8117,Summit County,Colorado,CO,16684,13745,39.1,30429,45.1707252949489,39.63418029894818,-106.11636795482259,86.82968619,23.24615931,,608.36,6.7,19.0,51.0,80078.0,1.0,1.3,14.6,81.8,4,19.5,,50.01808139917154
8119,Teller County,Colorado,CO,12157,11956,49.9,24113,49.58321237506739,38.88215682972448,-105.16177889481385,80.75879006,43.97446555,2278.0,557.06,4.2,25.5,34.0,64850.0,0.8,1.0,6.8,88.5,0,62.6,0.09447186165139136,43.28618102179299
8121,Washington County,Colorado,CO,2510,2330,41.6,4840,48.14049586776859,39.97101752155872,-103.2012456043598,80.28034204,44.5896715,,2518.03,7.5,32.0,16.2,47869.0,1.1,0.4,10.5,86.4,1,100.0,,1.922137544032438
8123,Weld County,Colorado,CO,148627,146496,34.3,295123,49.63896409293753,40.55483428651925,-104.39246146555716,80.01678824,47.11324256,33377.0,3987.24,11.9,27.5,26.7,75629.0,1.2,1.8,29.6,65.4,4,20.5,0.11309521792608505,74.01686379550767
8125,Yuma County,Colorado,CO,5019,5050,38.4,10069,50.153937828980034,40.002936546236675,-102.42424849126851,79.43253641,48.11548718,1207.0,2364.41,11.9,33.5,22.1,53253.0,0.4,0.5,23.9,74.1,7,64.9,0.119872877147681,4.258567676502807
9001,Fairfield County,Connecticut,CT,459963,484385,40.3,944348,51.293061456158114,41.2707951811424,-73.38938077097022,81.79737824,41.96398823,,624.89,10.1,21.7,47.4,91183.0,11.0,5.8,20.2,61.5,6,4.6,,1511.2227752084368
9003,Hartford County,Connecticut,CT,434650,460080,40.4,894730,51.42109910252255,41.80640591690197,-72.73287268847098,80.07763466,45.9762265,95010.0,735.1,10.5,26.9,37.8,73037.0,13.2,5.9,18.5,60.6,4,5.4,0.10618845908821656,1217.1541286899742
9005,Litchfield County,Connecticut,CT,90447,92584,47.2,183031,50.58378088957608,41.79248072795551,-73.24533246375512,80.73934229999998,46.1655197,12952.0,920.56,7.4,29.7,35.1,76304.0,1.6,2.1,6.7,88.1,1,41.4,0.07076396894515137,198.82571478230642
9007,Middlesex County,Connecticut,CT,79676,83692,45.4,163368,51.22912687919299,41.46318766657876,-72.53514427955895,81.02494513,45.05453223,,369.3,5.8,26.1,41.5,88709.0,4.8,3.2,6.4,83.7,1,24.5,,442.3720552396426
9009,New Haven County,Connecticut,CT,414311,445028,40.1,859339,51.787245778441346,41.41047804821459,-72.93207761888479,79.81420566,46.70828097,94687.0,604.51,9.9,30.9,34.9,67720.0,12.8,4.3,18.6,62.3,3,3.6,0.11018585214915184,1421.5463764040298
9011,New London County,Connecticut,CT,134703,134178,41.4,268881,49.902373168799585,41.48661392494676,-72.10147371348694,80.1825017,47.01136884,23961.0,664.88,8.1,29.8,33.3,67790.0,5.7,4.4,10.9,75.3,2,25.8,0.08911377151974294,404.4053062206714
9013,Tolland County,Connecticut,CT,75821,75448,37.5,151269,49.876709702582815,41.85504180401762,-72.33647701640963,81.64461418,44.40849458,9786.0,410.21,5.4,27.5,41.2,89584.0,3.3,4.9,5.7,84.3,1,38.2,0.06469269976003014,368.7599034640794
9015,Windham County,Connecticut,CT,57560,58978,41.3,116538,50.60838524773036,41.830019602873996,-71.9874389810461,78.99798287,50.57313795,,512.91,11.4,33.0,24.1,65182.0,1.9,1.5,12.3,82.2,2,49.8,,227.20945195063462
10001,Kent County,Delaware,DE,84271,90551,37.6,174822,51.79611261740513,39.08616892823277,-75.56842231599367,77.53646738,53.19531438,,586.18,12.9,33.2,23.6,54980.0,25.5,2.4,7.4,60.9,1,27.0,,298.23944863352557
10003,New Castle County,Delaware,DE,268870,286263,38.1,555133,51.56656152669721,39.5768334366461,-75.65269158568691,78.98544854,49.25344167,61319.0,426.29,8.5,30.6,35.9,69562.0,24.9,5.8,10.3,56.8,2,4.6,0.11045821451796237,1302.2426047995496
10005,Sussex County,Delaware,DE,106429,113111,49.0,219540,51.52181834745376,38.660552929902394,-75.39003806326262,78.76350394,48.21724447,,936.08,12.3,32.8,26.5,59821.0,11.8,1.3,9.3,75.3,2,41.3,,234.53123664644048
11001,District of Columbia,District of Columbia,,324881,359617,33.9,684498,52.537333929390606,38.904733935498726,-77.01629383836658,76.85619461,46.03541843,119778.0,61.05,9.4,17.2,57.6,82533.0,44.9,4.4,11.3,37.1,2,0.0,0.1749866325394669,11212.088452088452
12001,Alachua County,Florida,FL,127298,135850,31.3,263148,51.62494109778528,29.67474971890421,-82.3577136804271,78.64154374,49.53955987,55990.0,875.02,7.6,21.7,42.5,51026.0,20.0,6.3,10.3,60.8,1,21.2,0.21277000015200573,300.73369751548535
12003,Baker County,Florida,FL,14753,13032,37.6,27785,46.90300521864315,30.331097919902273,-82.28462852125189,75.25119657,59.57028788,,585.23,15.5,42.8,13.4,52804.0,13.8,0.7,2.7,80.8,1,59.5,,47.477060301078204
12005,Bay County,Florida,FL,90768,91714,39.4,182482,50.25920364748304,30.26521548612463,-85.62024281873269,76.51680138,54.62079517,,758.46,9.7,31.4,22.8,51777.0,11.2,2.3,6.7,76.1,1,12.0,,240.59541702924346
12007,Bradford County,Florida,FL,14841,12138,40.1,26979,44.99054820415879,29.949948760193077,-82.16876766874358,76.0733814,54.77830178,,293.96,21.7,39.7,10.6,45075.0,19.7,0.6,4.3,73.2,1,75.5,,91.77779289699279
12009,Brevard County,Florida,FL,282023,294785,47.2,576808,51.10626066212674,28.293721855653967,-80.73227050221601,78.52202176,47.87587781,84028.0,1015.66,8.0,28.6,29.3,57612.0,10.0,2.6,10.7,74.1,1,5.1,0.14567759115684942,567.9144595632397
12011,Broward County,Florida,FL,929712,979439,40.1,1909151,51.302332817048,26.152322379181037,-80.48712563481989,80.25257969,41.50375593,256027.0,1209.79,11.2,27.4,31.9,57200.0,28.3,3.9,30.4,35.6,8,0.0,0.13410515983282623,1578.0846262574496
12013,Calhoun County,Florida,FL,8048,6396,40.2,14444,44.281362503461644,30.40602254405449,-85.19719429272153,75.97274316,57.09324387,,567.33,21.9,41.9,9.9,38323.0,13.0,0.8,5.7,77.2,1,67.5,,25.459609045881585
12015,Charlotte County,Florida,FL,86278,90676,58.6,176954,51.24269584185721,26.90548521747582,-81.91226117367738,80.60422223,39.19507799,,680.28,9.7,33.8,23.2,52724.0,5.5,1.4,7.4,84.0,2,8.9,,260.1193626153937
12017,Citrus County,Florida,FL,69376,73711,56.2,143087,51.51481266641972,28.84891085374661,-82.47939451581993,76.72953914,50.02026177,23472.0,581.7,11.9,38.3,17.6,41556.0,2.9,1.7,5.9,87.7,1,34.5,0.1640400595441934,245.98074608904932
12019,Clay County,Florida,FL,102225,105066,39.5,207291,50.685268535537006,29.983063357912933,-81.85787749603033,78.18498091,53.80672695,,604.36,8.9,31.6,24.1,62835.0,11.3,3.2,10.3,72.1,2,15.0,,342.9925871996823
12021,Collier County,Florida,FL,179336,184586,50.3,363922,50.72130841224218,26.110715650069547,-81.34757344148187,83.43375257,30.61521172,41076.0,1998.32,13.6,25.4,36.2,70649.0,6.7,1.6,28.2,62.5,10,8.5,0.11287034034765692,182.11397573962128
12023,Columbia County,Florida,FL,35683,33422,40.7,69105,48.36408364083641,30.22424804587699,-82.6215392879257,75.1549892,57.68972846,,797.57,13.3,36.1,15.6,46195.0,18.0,1.1,6.4,72.3,1,62.1,,86.64443246360821
12027,DeSoto County,Florida,FL,20657,15742,40.6,36399,43.24844089123327,27.18636318151619,-81.8095044842232,79.70512893,40.07049717,,637.06,27.3,43.1,11.4,37233.0,11.9,0.6,31.9,54.5,10,46.2,,57.135905566194715
12029,Dixie County,Florida,FL,9218,7219,47.3,16437,43.91920666788344,29.608191599772557,-83.15880036818349,74.78777218,56.7323031,3697.0,705.05,20.7,44.7,9.4,37148.0,9.6,0.4,4.0,83.9,0,77.0,0.22491938918294094,23.3132401957308
12031,Duval County,Florida,FL,448163,476066,36.1,924229,51.5095284826596,30.33157316078935,-81.67084283244348,76.73509905,53.51355085,,762.19,10.5,27.9,29.2,55733.0,29.5,5.1,10.1,52.6,3,2.9,,1212.5965966491294
12033,Escambia County,Florida,FL,154520,157002,37.2,311522,50.398366728513565,30.66892673365146,-87.36278300432998,76.33427033,54.90551617,45044.0,656.46,9.2,27.3,26.4,50644.0,22.7,3.4,5.8,64.2,1,8.3,0.14459331925193084,474.5483350089876
12035,Flagler County,Florida,FL,51187,55952,50.9,107139,52.22374672154865,29.461424845918266,-81.31356839145538,79.67273374,42.95237358,11997.0,485.46,8.0,33.9,24.4,58975.0,10.0,2.6,10.5,74.8,3,10.3,0.11197603113712094,220.6958348782598
12037,Franklin County,Florida,FL,6714,5022,45.0,11736,42.79141104294479,29.87646471775977,-84.81402385488366,76.49814667,53.22664597,,534.73,19.7,35.7,17.1,40297.0,12.2,0.5,5.6,79.4,1,68.0,,21.94752491911806
12039,Gadsden County,Florida,FL,21785,24232,40.7,46017,52.65880000869244,30.57947808300991,-84.61362454008069,74.86793484,55.09755722,8906.0,516.33,20.7,36.6,16.7,42259.0,55.1,0.7,10.5,32.6,3,65.4,0.19353717104548318,89.12323514031723
12041,Gilchrist County,Florida,FL,9249,8366,42.5,17615,47.49361339767243,29.725832116937923,-82.80037637542131,76.80185702,54.66936562,2825.0,349.68,14.1,42.2,14.2,42186.0,5.4,0.6,6.1,85.8,2,83.9,0.1603746806698836,50.37462823152597
12043,Glades County,Florida,FL,7303,6060,47.2,13363,45.34909825637957,26.95643070782842,-81.18907378189233,79.75273371,39.65729418,2672.0,806.01,24.4,40.6,9.9,38680.0,13.0,0.7,21.1,60.1,5,70.6,0.19995509990271645,16.57919876924604
12045,Gulf County,Florida,FL,9586,6469,44.3,16055,40.292743693553405,29.955533791104088,-85.22659118243888,76.40109535,54.87358827,2958.0,564.01,15.1,37.3,17.7,45426.0,16.8,0.5,4.6,75.7,0,77.1,0.18424166926191218,28.465807343841423
12047,Hamilton County,Florida,FL,8281,5988,41.5,14269,41.96509916602425,30.4963888195477,-82.94793280216841,75.91640718,56.17356652,,513.79,23.9,44.0,9.3,36299.0,32.1,0.8,9.8,55.0,2,63.5,,27.772046945250008
12049,Hardee County,Florida,FL,14705,12523,35.1,27228,45.993095343029225,27.49270248675437,-81.8099829757123,78.50587554,44.89291153,6081.0,637.78,24.2,47.9,10.4,39169.0,6.7,1.1,44.0,46.7,7,47.8,0.2233362714852358,42.691837310671396
12051,Hendry County,Florida,FL,21437,18690,33.9,40127,46.57711765145663,26.553483325686326,-81.1658511122754,77.28930072,49.09588921,9712.0,1152.75,34.3,34.8,8.2,44391.0,10.8,1.0,54.3,32.1,16,37.9,0.242031549829292,34.80980264584689
12053,Hernando County,Florida,FL,87747,94949,48.9,182696,51.97103384857906,28.553631869514195,-82.4250382875201,77.59602937,49.02604229,27794.0,472.54,12.6,36.4,17.5,45884.0,5.2,1.4,14.2,77.2,1,19.4,0.1521325042693874,386.6254708596098
12055,Highlands County,Florida,FL,49727,52374,53.4,102101,51.29626546263014,27.343294339378854,-81.34103830391945,79.06932612,41.11528639,19035.0,1016.62,15.3,38.0,17.0,39994.0,9.6,1.6,20.8,66.4,4,21.1,0.1864330417919511,100.43182310007673
12057,Hillsborough County,Florida,FL,673286,705597,36.9,1378883,51.1716367523568,27.929076653782893,-82.30919543087629,78.55004272,48.28754476,,1020.21,11.6,27.1,32.7,58361.0,15.9,4.4,29.2,48.2,6,3.5,,1351.5678144695698
12059,Holmes County,Florida,FL,10484,8946,42.5,19430,46.04220277920741,30.867921065400104,-85.81401730838495,74.74167813,59.64955738,,478.78,22.6,39.0,10.3,38040.0,6.7,0.7,3.0,86.5,1,78.8,,40.58231337984043
12061,Indian River County,Florida,FL,72290,78694,52.9,150984,52.120754517034925,27.69431170639811,-80.60624480956191,79.96200454,40.61752097,18518.0,502.87,11.3,29.7,28.3,58228.0,9.0,1.6,12.7,75.2,2,5.0,0.12264875748423675,300.2445960188518
12063,Jackson County,Florida,FL,26784,21688,41.6,48472,44.74335698960225,30.795424733424305,-85.21549243778115,76.17144171,55.86668061,,917.76,19.3,37.4,13.4,39545.0,26.5,0.8,5.0,65.1,1,75.4,,52.81555090655509
12065,Jefferson County,Florida,FL,7507,6598,47.2,14105,46.777738390641616,30.437489290653517,-83.8952923758476,76.71950589,51.33849145,,598.1,17.9,33.3,22.0,46332.0,33.7,0.6,3.9,60.1,1,100.0,,23.58301287410132
12067,Lafayette County,Florida,FL,5066,3678,39.1,8744,42.063129002744745,29.98550163421513,-83.18109169194011,77.0524147,53.71714562,,543.41,23.9,40.8,15.8,42689.0,13.1,0.3,14.2,70.8,4,100.0,,16.09098102721702
12069,Lake County,Florida,FL,162402,172960,46.8,335362,51.574119906250566,28.7615362975738,-81.71126372382379,79.03375323,44.62127569,,938.38,10.7,32.9,22.7,52447.0,10.3,2.3,16.0,69.4,2,19.3,,357.38400221658605
12071,Lee County,Florida,FL,351918,366761,48.1,718679,51.032658530442646,26.57778608961981,-81.83374251869483,80.98357014,37.48829253,,784.51,12.0,30.8,27.8,56343.0,8.1,1.8,21.9,66.8,6,5.8,,916.0864743597915
12073,Leon County,Florida,FL,136894,151208,30.7,288102,52.484189627284785,30.458040822393304,-84.27789669045394,79.35341718,49.14927352,,666.85,6.4,19.1,45.7,51046.0,31.0,3.8,6.6,56.3,1,12.3,,432.0341905975857
12075,Levy County,Florida,FL,19364,20597,46.8,39961,51.542754185330686,29.31842893363033,-82.74355311874234,75.43030798,55.70987579999999,8467.0,1118.21,15.7,41.1,12.6,39037.0,9.0,0.7,8.6,79.5,1,92.0,0.2118815845449313,35.73657899678951
12077,Liberty County,Florida,FL,5110,3255,40.3,8365,38.91213389121339,30.24137448501433,-84.88289857705256,76.12832558,57.09791438,,835.56,18.6,47.9,12.7,40814.0,18.9,0.4,7.2,71.2,2,100.0,,10.011249940159894
12079,Madison County,Florida,FL,9829,8645,42.9,18474,46.79549637328137,30.444118897538985,-83.47012097179798,75.3471376,56.77252044,,695.95,19.3,38.1,13.8,38249.0,37.3,0.5,5.6,54.7,1,80.0,,26.545010417415043
12081,Manatee County,Florida,FL,180595,193258,48.0,373853,51.69358009699,27.471905677439604,-82.31531846354605,80.36472752,38.90323961,47042.0,742.93,10.8,30.4,29.3,59587.0,8.4,2.3,16.7,70.9,3,5.8,0.12583020599005493,503.21430013594824
12083,Marion County,Florida,FL,167211,181160,48.6,348371,52.00203231612276,29.21020747879416,-82.05665151069297,77.45318912,48.07682028,,1584.55,12.7,37.5,19.4,44517.0,12.5,1.8,13.6,70.1,1,31.0,,219.85484837966615
12085,Martin County,Florida,FL,78002,79579,51.9,157581,50.50037758359193,27.077522043942032,-80.43147131544295,81.16236015,37.60261179,,543.46,9.5,25.2,33.0,61592.0,5.2,1.5,13.9,78.0,3,8.5,,289.95878261509586
12086,Miami-Dade County,Florida,FL,1318627,1396889,39.7,2715516,51.44101526192444,25.614959287482186,-80.56228896188752,80.90495113,40.4173818,487700.0,1897.72,18.5,27.7,28.8,52043.0,15.6,1.7,69.1,13.0,22,0.4,0.17959754241919398,1430.936070653205
12087,Monroe County,Florida,FL,39822,36503,47.3,76325,47.825745168686545,25.315618299144923,-81.11063629941314,78.84920313,44.17534814,,983.28,8.7,27.3,33.3,67094.0,6.1,1.4,24.9,65.8,5,8.7,,77.62285412090148
12089,Nassau County,Florida,FL,39956,40622,45.0,80578,50.41326416639778,30.61059898992588,-81.80161575823566,77.82899071,51.44850274,,648.64,8.6,32.7,28.2,66898.0,5.7,1.0,4.5,86.9,1,48.1,,124.22607301430686
12091,Okaloosa County,Florida,FL,101745,98992,36.8,200737,49.3142768896616,30.691283659672578,-86.59172167469082,78.38231682,52.03759309,21032.0,930.25,8.2,24.7,30.6,62779.0,9.6,3.3,9.7,73.1,2,12.1,0.10477390814847287,215.7882289707068
12093,Okeechobee County,Florida,FL,21866,18706,41.1,40572,46.1056886522725,27.386442352560127,-80.88863138971482,76.08662922,51.44891706,7547.0,768.91,25.0,38.4,11.4,42258.0,8.5,1.0,25.5,63.0,6,36.5,0.1860149857044267,52.76560325655799
12095,Orange County,Florida,FL,648446,672748,34.9,1321194,50.91969839402844,28.514424652065124,-81.32351241050317,79.86124824,45.48668724,,903.43,11.5,24.5,33.8,58037.0,20.2,5.7,32.3,39.7,7,2.0,,1462.4198886466024
12097,Osceola County,Florida,FL,166820,171799,35.8,338619,50.73519205951232,28.062685620772754,-81.1494748758002,79.24119498,47.16899258,,1327.45,13.2,31.9,20.5,50473.0,9.6,2.9,55.3,30.8,10,7.8,,255.08983389204866
12099,Palm Beach County,Florida,FL,701207,745070,44.6,1446277,51.51641075672226,26.64759584426105,-80.46551002338627,81.2374923,36.2707924,178918.0,1969.76,11.8,24.5,35.7,61735.0,18.6,2.9,22.9,54.1,7,1.0,0.12370935858068682,734.2402120055235
12101,Pasco County,Florida,FL,248572,262021,44.6,510593,51.316998078704565,28.309095478557378,-82.39319537627861,77.70477371,48.13620028,66980.0,746.89,11.0,33.1,23.4,53788.0,5.6,2.7,15.8,73.8,2,9.5,0.13118080349711023,683.6254334640978
12103,Pinellas County,Florida,FL,459766,498109,47.8,957875,52.00146156857628,27.919601540135304,-82.7255990416769,78.88860743,45.25232217,125923.0,273.8,8.9,28.3,31.0,52226.0,10.5,3.6,10.0,73.8,2,0.3,0.13146078559310975,3498.4477720964205
12105,Polk County,Florida,FL,327706,340965,40.3,668671,50.991444222943706,27.94887980066956,-81.69757667431374,77.95779093,47.3205047,,1797.84,15.2,35.4,20.0,51354.0,14.6,1.9,23.6,57.9,4,13.5,,371.930205135051
12107,Putnam County,Florida,FL,35841,36925,45.0,72766,50.74485336558283,29.608652485033247,-81.74430345444475,74.85005205,56.13442664,,727.62,19.1,40.7,12.4,39578.0,15.8,0.7,10.2,71.3,2,56.2,,100.00549737500343
12109,St. Johns County,Florida,FL,114660,120843,43.4,235503,51.31272213092826,29.901641120442296,-81.44066458471889,80.68875974,42.80995235,17838.0,600.66,5.4,21.4,43.7,81925.0,5.2,3.2,7.2,82.3,1,23.8,0.07574425803492948,392.0737189091999
12111,St. Lucie County,Florida,FL,149385,156206,44.8,305591,51.11603417639918,27.37725646405573,-80.47202647272216,79.12095644,42.39473436,51657.0,571.93,13.9,33.7,20.3,53377.0,19.8,2.0,19.5,56.7,4,3.4,0.16903966412623408,534.3153882468134
12113,Santa Rosa County,Florida,FL,87175,83267,39.7,170442,48.8535689560085,30.700441588009053,-87.0219783377785,78.19713057,52.27611288,17308.0,1011.61,8.4,27.2,28.1,69541.0,6.1,2.2,5.7,82.3,1,21.0,0.10154774058037339,168.4858789454434
12115,Sarasota County,Florida,FL,196433,215711,55.5,412144,52.338745681121146,27.18446789188277,-82.33150444148295,81.51287412,36.6274843,43904.0,555.87,7.2,29.1,34.7,61652.0,4.4,1.8,9.3,83.0,2,4.3,0.10652587445164796,741.4395452174069
12117,Seminole County,Florida,FL,219935,235151,39.2,455086,51.67177192882224,28.71697275815061,-81.23631749629911,80.39036017,46.18442263,,309.22,5.7,21.7,38.2,67187.0,11.4,4.9,22.0,59.6,3,3.2,,1471.7223982924777
12119,Sumter County,Florida,FL,60725,60274,67.0,120999,49.813634823428295,28.704755998197516,-82.08097332451321,81.73804122,34.9262591,,546.93,8.4,30.2,31.1,55324.0,7.0,1.0,5.7,85.1,1,35.0,,221.23306456036423
12121,Suwannee County,Florida,FL,22230,21694,42.5,43924,49.38985520444404,30.1956050583855,-82.99149467549117,75.40610243,56.34921688,8244.0,688.55,18.5,39.3,14.7,38525.0,12.4,0.7,9.6,75.5,2,83.2,0.1876878244240051,63.79202672282333
12123,Taylor County,Florida,FL,12414,9684,41.7,22098,43.8229704045615,30.047012740046693,-83.60352701355308,75.73382241,56.78566455,,1043.31,22.6,43.3,7.4,42307.0,19.3,0.8,4.5,72.4,1,69.3,,21.180665382292897
12125,Union County,Florida,FL,9919,5320,39.5,15239,34.91042719338539,30.043854965375022,-82.37143421304569,67.57196638,70.54180419,,243.56,23.1,37.9,8.3,45906.0,21.9,0.7,5.7,69.6,0,67.4,,62.56774511414025
12127,Volusia County,Florida,FL,257275,270359,46.5,527634,51.23987461005166,29.05842069048299,-81.1819206464182,77.48526705,49.47252068,73420.0,1101.03,10.0,32.2,23.6,50285.0,10.4,2.0,14.5,71.2,1,9.9,0.1391494861968713,479.2185499032724
12129,Wakulla County,Florida,FL,17490,14387,40.7,31877,45.13285440913511,30.16731985949023,-84.40067670819596,76.40715152,56.58987266,3728.0,606.42,12.1,35.9,18.4,58203.0,12.8,0.7,3.8,80.1,0,61.7,0.11694952473570286,52.56587843408859
12131,Walton County,Florida,FL,33317,32541,43.7,65858,49.41085365483313,30.643581658467326,-86.16965567860775,77.24585040000002,51.93572044,,1037.63,11.5,27.6,28.4,60973.0,5.0,1.4,6.4,84.2,1,63.1,,63.46963753939265
12133,Washington County,Florida,FL,13231,11335,41.8,24566,46.14100789709354,30.61060117393221,-85.6653326437579,74.84507406,57.77666028,,582.8,18.8,41.5,11.7,39225.0,14.5,0.6,3.7,77.5,1,84.6,,42.15168153740563
13001,Appling County,Georgia,GA,9353,9101,39.0,18454,49.31722119865612,31.74922311475336,-82.28889645061686,74.29149206,60.72090167,3542.0,507.08,25.5,38.3,9.7,42781.0,18.9,0.8,10.2,68.6,3,71.4,0.1919367074888913,36.39267965607005
13003,Atkinson County,Georgia,GA,4208,4057,35.5,8265,49.0865093768905,31.297133177431412,-82.88007086610327,73.92147290000003,62.97748641,2176.0,339.38,30.9,40.3,9.9,36779.0,16.1,0.9,25.0,56.6,9,100.0,0.2632788868723533,24.353232364900702
13005,Bacon County,Georgia,GA,5564,5664,37.0,11228,50.44531528322052,31.55368008748609,-82.45269850637237,72.90546723,65.45027846,2524.0,258.58,18.5,41.9,10.1,38775.0,16.1,0.7,8.7,73.0,3,69.3,0.22479515496971855,43.421765024363836
13007,Baker County,Georgia,GA,1521,1668,47.0,3189,52.30479774223896,31.32614478356452,-84.44471523235575,77.97171699,48.71450445,,341.94,21.7,38.9,12.3,38288.0,44.0,1.1,6.0,47.5,1,100.0,,9.326197578522548
13009,Baldwin County,Georgia,GA,22759,22527,35.3,45286,49.74385019652873,33.06926620604074,-83.24955570280326,76.09169623,56.03432463,10273.0,257.84,15.6,36.4,20.9,42727.0,42.2,1.7,2.2,52.4,1,35.1,0.2268471492293424,175.6360533664288
13011,Banks County,Georgia,GA,9281,9229,41.1,18510,49.859535386277685,34.354150509758256,-83.49737690472382,77.39513601,53.35538231,2845.0,232.09,22.9,40.6,12.8,55384.0,2.6,1.1,7.1,87.5,2,93.8,0.15370070232306862,79.75354388383816
13013,Barrow County,Georgia,GA,37771,39116,35.4,76887,50.874660215641136,33.99318851194388,-83.71273176520245,76.40287029,56.55737949,9888.0,160.31,17.0,34.4,17.6,61413.0,11.9,3.9,11.5,70.5,2,30.1,0.12860431542393383,479.61449691223254
13015,Bartow County,Georgia,GA,51332,52288,37.9,103620,50.461300907160776,34.237864926592806,-84.84049136346613,76.13478289,57.85896749,15442.0,459.54,17.0,33.0,19.5,57409.0,10.8,1.1,8.8,77.3,2,35.2,0.1490252846940745,225.4863559211385
13017,Ben Hill County,Georgia,GA,8047,9107,39.7,17154,53.089658388714,31.75979096552452,-83.22050662751855,73.58802222,62.65380211,4467.0,250.12,17.3,44.2,12.0,35020.0,35.7,0.9,6.2,55.8,1,34.0,0.26040573627142355,68.58308012154166
13019,Berrien County,Georgia,GA,9299,9726,39.7,19025,51.1222076215506,31.27595307009997,-83.2296386824687,75.17720158,59.62759551,,451.9,21.9,42.3,11.8,39412.0,10.7,1.2,4.9,81.7,1,76.1,,42.100022128789554
13021,Bibb County,Georgia,GA,72065,81425,36.2,153490,53.04905857059092,32.80649503959659,-83.6974049052155,73.78167013,59.99116055,38547.0,249.76,14.3,31.6,25.7,41390.0,55.0,2.2,3.4,37.8,1,14.4,0.2511368818815558,614.5499679692505
13023,Bleckley County,Georgia,GA,5937,6838,36.8,12775,53.52641878669277,32.43444533648342,-83.32781353408475,75.79138025,56.22168516,2514.0,215.87,12.4,41.7,17.2,46019.0,26.3,1.0,3.1,68.2,0,51.6,0.19679060665362036,59.179135590864874
13025,Brantley County,Georgia,GA,9103,9458,40.9,18561,50.95630623350035,31.19687588159824,-81.98190369036095,74.81442046,60.17589479,3795.0,442.36,20.0,46.6,8.2,41874.0,3.5,0.3,2.0,92.1,0,99.4,0.20446096654275092,41.95903788769328
13027,Brooks County,Georgia,GA,7608,8014,43.0,15622,51.299449494302905,30.841980890813733,-83.58020127816081,75.59002008,57.07535343,,493.05,17.2,38.1,15.2,36354.0,34.4,1.1,5.9,56.8,2,71.0,,31.684413345502485
13029,Bryan County,Georgia,GA,17786,18099,34.6,35885,50.43611536853838,32.01447125496505,-81.44363800915423,75.94456148,59.64532081,,435.97,8.1,25.6,32.6,79658.0,14.2,2.2,7.3,73.2,1,52.3,,82.31070945248526
13031,Bulloch County,Georgia,GA,36777,38005,28.5,74782,50.82105319461903,32.396807700709054,-81.74318109731512,77.07468728,55.18372622,16650.0,672.81,13.1,27.3,27.4,43766.0,29.2,1.4,4.1,63.4,0,48.3,0.2226471610815437,111.14876413846406
13033,Burke County,Georgia,GA,10697,11853,37.5,22550,52.563192904656326,33.06108149647405,-82.00090102559142,73.27254024,61.78796095,,826.97,20.8,37.4,12.6,42785.0,46.9,0.6,3.3,47.5,1,75.0,,27.26822012890431
13035,Butts County,Georgia,GA,12661,11089,38.5,23750,46.69052631578947,33.287881117452336,-83.9571851283701,74.03629885,61.95607226,3586.0,184.39,20.8,44.0,11.4,48831.0,28.3,0.6,3.5,66.0,0,77.9,0.15098947368421053,128.80308042735507
13037,Calhoun County,Georgia,GA,3875,2553,38.8,6428,39.716863721219674,31.52922229190555,-84.62453274545412,73.94986918,60.31759205,,280.37,25.7,39.3,9.4,33393.0,60.2,0.7,5.0,32.9,1,100.0,,22.926846666904446
13039,Camden County,Georgia,GA,27019,25695,32.3,52714,48.7441666350495,30.9305629089952,-81.66997639236854,77.67526971,54.17552819,,613.03,8.2,31.5,24.5,56555.0,18.5,1.5,7.0,69.6,0,31.4,,85.98926643068039
13043,Candler County,Georgia,GA,5363,5464,37.8,10827,50.466426526276905,32.403441866832,-82.07366026690293,74.36870978,60.44018349,2647.0,243.04,23.4,36.1,14.1,35841.0,24.3,1.3,12.3,61.4,1,67.0,0.2444813891197931,44.54822251481238
13045,Carroll County,Georgia,GA,56448,59574,34.5,116022,51.347158297564256,33.58278635872622,-85.07976834898115,75.22370033,60.64382628,,499.08,16.3,33.2,20.6,52502.0,19.0,1.0,7.2,70.7,1,41.8,,232.4717480163501
13047,Catoosa County,Georgia,GA,31991,34308,39.9,66299,51.747386838413846,34.903628899945566,-85.1382495470056,78.09969162,52.43212271,8505.0,162.16,12.6,32.4,20.8,55807.0,2.7,1.4,3.1,90.6,1,28.1,0.12828247786542785,408.84928465712875
13049,Charlton County,Georgia,GA,7522,5461,41.7,12983,42.062697373488405,30.78172966832286,-82.13793183909222,75.38238923,58.89050824,2725.0,773.58,26.7,39.1,10.5,40499.0,28.7,0.9,4.7,61.6,5,51.0,0.20988985596549334,16.783008867861113
13051,Chatham County,Georgia,GA,138403,148646,35.2,287049,51.7841901556877,32.004215529188535,-81.13283524725081,77.03904036,52.0093515,,426.44,10.4,24.3,33.2,54165.0,40.1,2.9,6.6,48.2,1,4.5,,673.128693368352
13053,Chattahoochee County,Georgia,GA,7172,3595,23.7,10767,33.38905916225504,32.34698433321824,-84.78702090474056,77.12990179,57.04719032,1639.0,248.74,7.2,25.9,33.4,46869.0,19.2,3.0,16.1,57.0,1,29.5,0.1522243893377914,43.2861622577792
13055,Chattooga County,Georgia,GA,12865,11952,39.5,24817,48.16053511705686,34.47500026331241,-85.34534078306989,74.52374197,61.38999784,4716.0,313.34,26.9,38.7,9.8,39513.0,9.7,0.5,5.4,82.4,1,57.6,0.19003102711850747,79.20150635092871
13057,Cherokee County,Georgia,GA,119270,122640,38.3,241910,50.696540035550406,34.243949895751875,-84.47619174967369,79.92615761,49.53649915,,421.67,8.6,22.8,37.0,82733.0,6.8,2.0,10.8,78.4,3,17.1,,573.6950696041928
13059,Clarke County,Georgia,GA,59248,65354,27.7,124602,52.45020144138939,33.95117829419573,-83.36733044991767,78.34723383,50.5200316,,119.2,12.9,21.1,42.7,42112.0,27.8,4.3,10.9,55.1,3,5.9,,1045.3187919463087
13061,Clay County,Georgia,GA,1473,1528,45.1,3001,50.91636121292903,31.626237880866245,-84.98008738502199,74.45091740000002,58.07781111,,195.38,20.2,42.3,7.9,30239.0,60.4,0.5,1.7,36.2,0,100.0,,15.359811649094073
13063,Clayton County,Georgia,GA,130748,147918,32.4,278666,53.08074899700716,33.54190470997107,-84.35764422823787,77.21876391,55.104425600000006,,141.57,15.3,32.9,19.5,46059.0,69.9,5.2,13.3,9.6,5,0.9,,1968.3972593063504
13065,Clinch County,Georgia,GA,3427,3316,37.7,6743,49.17692421770725,30.91499529746785,-82.7062571569877,73.14401446,63.92207526,1752.0,800.22,29.2,31.7,11.1,37593.0,26.7,0.4,5.9,64.9,1,60.4,0.2598250037075486,8.426432730998975
13067,Cobb County,Georgia,GA,360270,384787,36.5,745057,51.64531035880477,33.941481403689004,-84.57669231618759,80.08166084,49.50319291,73446.0,339.55,8.2,18.7,46.5,78603.0,27.5,5.6,13.2,51.5,4,0.2,0.0985776927134434,2194.2482697688115
13069,Coffee County,Georgia,GA,22088,20873,36.2,42961,48.58592677079211,31.549285774251164,-82.84917705280685,74.89421292,58.8582346,,575.1,22.6,38.6,13.2,39480.0,28.0,0.9,12.0,57.7,2,66.6,,74.7017909928708
13071,Colquitt County,Georgia,GA,22554,23052,36.4,45606,50.545980792001046,31.188376864146942,-83.76879848979921,74.78034148,58.41511975,11252.0,544.15,26.2,39.4,12.5,38633.0,22.9,0.9,19.7,55.4,7,58.9,0.2467219225540499,83.81144904897548
13073,Columbia County,Georgia,GA,71970,75325,36.6,147295,51.13887097321701,33.544117005468124,-82.2640388662556,79.75697072,50.02839678,,290.09,7.4,24.9,35.1,82184.0,17.6,4.2,6.9,68.1,2,16.2,,507.7562135888862
13075,Cook County,Georgia,GA,8348,8836,37.4,17184,51.419925512104285,31.15399291233004,-83.43046305152593,74.21896739,61.81453628,,227.16,20.1,34.4,15.5,38827.0,27.5,0.8,5.7,64.6,1,59.4,,75.64712097200211
13077,Coweta County,Georgia,GA,68430,72086,38.5,140516,51.30091946824561,33.353464261142136,-84.76335813394353,78.17267192,53.12731698,13867.0,440.89,11.2,28.6,29.8,70974.0,17.9,2.2,7.1,70.8,2,32.9,0.098686270602636,318.7098822835628
13079,Crawford County,Georgia,GA,6299,6045,44.4,12344,48.97116007777058,32.71451075484091,-83.98632970226815,76.63006251,54.01096639,,324.89,16.5,39.4,10.3,48004.0,20.5,1.2,3.5,73.0,0,100.0,,37.99439810397365
13081,Crisp County,Georgia,GA,10849,11997,38.8,22846,52.512474831480354,31.922911533424397,-83.76805458478232,74.87430322,56.72277345,6751.0,272.58,19.9,39.1,13.7,36096.0,44.2,1.4,3.5,49.6,1,47.0,0.2955003063993697,83.81392618680755
13083,Dade County,Georgia,GA,7932,8295,42.2,16227,51.11850619338139,34.85455198002998,-85.50451949439496,75.58123827,59.68172665,,173.98,20.9,35.8,13.9,48779.0,1.2,1.0,2.3,93.7,0,72.1,,93.26934130359813
13085,Dawson County,Georgia,GA,11774,12087,43.4,23861,50.65588198315242,34.44429664766713,-84.17062681094588,78.26487018,52.0288286,,210.83,14.0,28.6,30.4,68835.0,0.8,0.9,4.8,92.0,1,80.3,,113.17649290897879
13087,Decatur County,Georgia,GA,12907,13926,38.1,26833,51.89878135132114,30.87834851070791,-84.5790467928489,74.45736499,58.97592946,,597.14,18.4,36.1,14.6,38441.0,42.0,0.6,6.3,49.9,0,56.5,,44.93586093713367
13089,DeKalb County,Georgia,GA,351871,391316,35.6,743187,52.65377354555449,33.771536025519296,-84.22642599367776,79.14428733,46.92466216,,267.58,11.0,20.8,43.4,63477.0,53.7,6.6,8.6,29.2,5,0.3,,2777.438523058525
13091,Dodge County,Georgia,GA,10972,9947,41.6,20919,47.55007409532004,32.17220685504268,-83.16840542232752,74.99269368,59.25937778,,495.89,16.8,42.3,13.7,35636.0,29.5,0.5,3.6,64.8,1,72.2,,42.18475871665087
13093,Dooly County,Georgia,GA,7529,6376,43.7,13905,45.85400934915498,32.15718703870342,-83.79879578129345,77.15700111,52.83402170000001,3386.0,391.94,24.8,39.6,11.3,37278.0,48.9,0.7,6.9,42.4,2,53.7,0.24350952894642214,35.477368985048734
13095,Dougherty County,Georgia,GA,42144,48905,35.1,91049,53.71283594547991,31.533464176261248,-84.2163863940889,75.18720167,56.818068200000006,26389.0,328.69,17.5,29.0,21.4,38806.0,70.3,1.0,2.9,24.4,1,14.0,0.2898329470944217,277.0056892512702
13097,Douglas County,Georgia,GA,67726,74114,36.4,141840,52.251833051325434,33.70184254125166,-84.76795534667156,77.05570990000002,57.33050049,,200.07,12.0,30.7,27.1,60512.0,47.0,1.7,10.0,38.9,2,15.8,,708.9518668466037
13099,Early County,Georgia,GA,4791,5557,40.7,10348,53.70119829918825,31.322828065272226,-84.9036560198351,73.75668013,58.50297041,3210.0,512.59,19.9,36.0,15.6,34984.0,51.0,0.7,2.3,44.6,0,66.0,0.310204870506378,20.18767435962465
13101,Echols County,Georgia,GA,1973,2021,40.9,3994,50.60090135202804,30.710050404607664,-82.8939614401204,77.31189299,53.03415704,913.0,414.89,28.5,38.2,8.8,38667.0,4.8,0.5,30.1,61.5,3,100.0,0.22859288933400101,9.62664802718793
13103,Effingham County,Georgia,GA,29215,29474,36.1,58689,50.22065463715517,32.36728626780035,-81.34135177842046,76.73685674,57.08254101,,477.7,12.0,37.8,20.1,65793.0,13.8,1.1,4.8,78.1,1,67.1,,122.85744190914801
13105,Elbert County,Georgia,GA,9188,10024,42.6,19212,52.175723506142,34.11679503971489,-82.84014598002616,74.77547792,57.92798638,4197.0,351.06,22.6,43.1,10.8,39681.0,28.2,1.1,5.9,63.5,2,70.6,0.21845721424109932,54.725687916595454
13107,Emanuel County,Georgia,GA,11105,11394,36.8,22499,50.642250766700755,32.58973973272469,-82.30171316851842,73.37034593,63.13270624,5911.0,680.6,20.8,42.9,12.4,37574.0,34.4,0.7,4.5,59.1,1,66.9,0.2627227876794524,33.05759623861299
13109,Evans County,Georgia,GA,5303,5424,37.7,10727,50.56399738976415,32.156764561306865,-81.88688163404811,74.73928455,59.71672689,2500.0,182.85,25.7,37.5,15.5,37319.0,30.0,1.3,11.9,56.0,4,61.3,0.23305677262981261,58.66557287394039
13111,Fannin County,Georgia,GA,12086,12839,51.4,24925,51.510531594784354,34.86408398906588,-84.31983386746593,76.94121498,53.27344254,,386.72,13.3,34.3,21.3,43439.0,0.7,0.7,2.5,94.6,1,100.0,,64.45231692180388
13113,Fayette County,Georgia,GA,54055,57314,43.5,111369,51.46315401952069,33.4139533236953,-84.49418416217284,81.21843853,46.25624346,,194.34,5.2,20.7,46.5,95021.0,23.7,5.3,7.4,61.4,1,18.2,,573.0626736647113
13115,Floyd County,Georgia,GA,46810,50014,38.5,96824,51.654548459059725,34.26318326372692,-85.21425982603337,75.79695666,57.53726933,,509.91,19.0,33.1,20.4,44906.0,14.4,1.7,11.3,70.9,3,36.8,,189.8844894197015
13117,Forsyth County,Georgia,GA,109258,110622,38.3,219880,50.310169183190844,34.225543250240136,-84.1250204103617,81.27918395,45.52913464,,224.02,7.2,16.6,51.7,105921.0,3.8,14.5,9.7,70.3,2,9.9,,981.5195071868583
